,City,Lat,Lng,Max Temp,Humidity,Cloudiness,Wind Speed,Country,Date
0,hithadhoo,-0.6,73.0833,82.18,69,100,5.1,MV,1611433403
1,severo-kurilsk,50.6789,156.125,22.26,95,88,34.27,RU,1611433404
2,puerto ayora,-0.7393,-90.3518,82.4,74,40,11.5,EC,1611433290
3,atuona,-9.8,-139.0333,78.12,79,2,18.39,PF,1611433404
4,taolanaro,,,,,,,,
5,snasa,64.2457,12.3778,15.04,93,100,6.64,NO,1611433404
6,kapaa,22.0752,-159.319,72,94,90,20.71,US,1611433404
7,clonakilty,51.6231,-8.8706,37.99,100,75,4.61,IE,1611433404
8,upernavik,72.7868,-56.1549,21.18,79,100,5.5,GL,1611433404
9,saint-philippe,-21.3585,55.7679,78.8,73,0,5.75,RE,1611433404
10,khatanga,71.9667,102.5,-27.29,84,100,11.39,RU,1611433405
11,uhlove,44.8215,33.6045,53.01,45,55,7,UA,1611433405
12,norman wells,65.282,-126.8329,-18.4,76,40,8.05,CA,1611433405
13,rikitea,-23.1203,-134.9692,78.84,67,0,10.31,PF,1611433405
14,luderitz,-26.6481,15.1594,72.37,48,100,27.47,NA,1611433405
15,tiarei,-17.5333,-149.3333,84.2,65,20,5.75,PF,1611433405
16,torbay,47.6666,-52.7314,25,93,90,16.11,CA,1611433405
17,isangel,-19.55,169.2667,77.23,89,100,7.29,VU,1611433406
18,tasiilaq,65.6145,-37.6368,14,57,12,4.61,GL,1611433406
19,vaini,-21.2,-175.2,80.6,89,75,6.85,TO,1611433406
20,lavrentiya,65.5833,-171,-2.16,86,82,4.59,RU,1611433406
21,pangnirtung,66.1451,-65.7125,15.8,73,20,3.44,CA,1611433406
22,punta arenas,-53.15,-70.9167,59,47,0,29.93,CL,1611433322
23,busselton,-33.65,115.3333,61,88,38,4.47,AU,1611433406
24,cidreira,-30.1811,-50.2056,78.8,76,0,15.26,BR,1611433406
25,wicklow,53,-6.4167,34,80,0,6.91,IE,1611433407
26,longyearbyen,78.2186,15.6401,8.6,72,0,11.5,SJ,1611433407
27,lompoc,34.6391,-120.4579,50,81,90,5.75,US,1611433407
28,esperance,-33.8667,121.9,62.6,94,90,6.91,AU,1611433407
29,marcona,,,,,,,,
30,mataura,-46.1927,168.8643,55,84,100,8.01,NZ,1611433407
31,progreso,21.2833,-89.6667,91,35,40,9.22,MX,1611433407
32,butaritari,3.0707,172.7902,79.68,80,94,11.59,KI,1611433408
33,shache,38.4167,77.2406,23.22,66,9,5.01,CN,1611433408
34,illoqqortoormiut,,,,,,,,
35,bluff,-46.6,168.3333,55,84,91,8.01,NZ,1611433408
36,itoman,26.1247,127.6694,66.2,77,75,21.85,JP,1611433408
37,sao filipe,14.8961,-24.4956,74.07,68,28,7.09,CV,1611433408
38,barrow,71.2906,-156.7887,6.8,78,1,17.27,US,1611433408
39,chibuto,-24.6867,33.5306,77.07,86,100,8.52,MZ,1611433408
40,ushuaia,-54.8,-68.3,64.4,36,75,19.57,AR,1611433409
41,nanortalik,60.1432,-45.2371,23.43,88,0,7.18,GL,1611433409
42,agadez,19.75,10.25,58.95,27,0,6.82,NE,1611433233
43,abu kamal,34.4506,40.9171,44.15,56,0,2.64,SY,1611433409
44,kamaishi,39.2667,141.8833,32.31,90,100,4.25,JP,1611433409
45,hobart,-42.8794,147.3294,57.99,94,40,5.75,AU,1611433149
46,new norfolk,-42.7826,147.0587,57.99,75,5,2.53,AU,1611433409
47,san jose,37.3394,-121.895,54,66,40,11.5,US,1611433341
48,liverpool,53.4106,-2.9779,35.6,93,0,5.75,GB,1611433409
49,bredasdorp,-34.5322,20.0403,62.6,94,100,9.22,ZA,1611433410
50,sol-iletsk,51.1631,54.9918,13.6,96,100,14.29,RU,1611433410
51,rocha,-34.4833,-54.3333,85.3,52,7,15.32,UY,1611433410
52,mananara,-16.1667,49.7667,75.38,84,15,4.27,MG,1611433410
53,buraydah,26.326,43.975,51.8,37,40,6.91,SA,1611433351
54,ilulissat,69.2167,-51.1,19.4,38,20,6.91,GL,1611433410
55,hermanus,-34.4187,19.2345,62.01,95,99,1.99,ZA,1611433410
56,georgetown,5.4112,100.3354,78.01,88,20,2.3,MY,1611433311
57,chuy,-33.6971,-53.4616,80.38,65,16,12.93,UY,1611433411
58,tautira,-17.7333,-149.15,84.2,65,20,5.75,PF,1611433411
59,ancud,-41.8697,-73.8203,66.2,63,0,9.22,CL,1611433411
60,timmins,48.4669,-81.3331,1.4,66,75,3.87,CA,1611433333
61,yueyang,29.3333,113.0919,46.18,79,0,2.93,CN,1611433411
62,belushya guba,,,,,,,,
63,constitucion,-35.3333,-72.4167,67.23,70,15,6.89,CL,1611433411
64,tezu,27.9167,96.1667,61.72,49,72,3.06,IN,1611433412
65,mahibadhoo,3.7833,72.9667,83.3,65,100,6.71,MV,1611433412
66,moundsville,39.9203,-80.7431,30.99,43,1,8.05,US,1611433412
67,lodeynoye pole,60.726,33.5531,33.51,97,100,5.66,RU,1611433412
68,albany,42.6001,-73.9662,23,43,3,8.99,US,1611433317
69,qaanaaq,77.484,-69.3632,17.85,79,100,3.67,GL,1611433412
70,hilo,19.7297,-155.09,75.2,69,90,4.12,US,1611433412
71,henties bay,-22.116,14.2845,71.01,86,100,2.51,NA,1611433413
72,champerico,14.3,-91.9167,89.6,45,75,6.91,GT,1611433413
73,shenjiamen,29.9576,122.298,43.18,86,1,15.75,CN,1611433413
74,tabou,4.423,-7.3528,78.49,87,0,7.74,CI,1611433413
75,hasaki,35.7333,140.8333,39.2,100,75,19.57,JP,1611433413
76,kishangarh,26.5667,74.8667,55.63,33,0,9.33,IN,1611433413
77,port hardy,50.6996,-127.4199,39.2,81,75,6.91,CA,1611433200
78,barauna,-5.08,-37.6167,89.6,58,75,18.41,BR,1611433413
79,dikson,73.5069,80.5464,-17.86,90,92,5.12,RU,1611433414
80,mount gambier,-37.8333,140.7667,64.4,77,100,5.75,AU,1611433152
81,bengkulu,-3.8004,102.2655,76.71,82,92,4.47,ID,1611433414
82,sao joao da barra,-21.6403,-41.0511,84.2,54,20,16.11,BR,1611433414
83,fortuna,40.5982,-124.1573,52,66,1,10.36,US,1611433414
84,ampanihy,-24.7,44.75,77.94,84,100,4.72,MG,1611433414
85,bethel,41.3712,-73.414,28.99,26,1,16.11,US,1611433414
86,colac,-38.3333,143.5833,64.99,62,91,5.17,AU,1611433414
87,wattegama,6.7989,81.4808,73.4,100,0,6.91,LK,1611433415
88,mayo,38.8876,-76.5119,35.01,40,1,13.8,US,1611433415
89,pleasanton,37.6624,-121.8747,54,66,75,5.75,US,1611433415
90,brae,60.3964,-1.353,39.2,70,75,10.36,GB,1611433415
91,souillac,-20.5167,57.5167,78.8,83,40,2.3,MU,1611433415
92,karratha,-20.7377,116.8463,83.3,49,0,15.7,AU,1611433415
93,bambous virieux,-20.3428,57.7575,79,83,40,2.3,MU,1611433415
94,aklavik,68.2191,-135.0107,-0.4,78,75,6.91,CA,1611433415
95,burica,,,,,,,,
96,shaoyang,27.2315,111.4525,46.89,71,0,2.3,CN,1611433416
97,tateyama,34.9833,139.8667,39.2,87,75,23.02,JP,1611433416
98,balikpapan,-1.2675,116.8289,75.45,92,100,4.68,ID,1611433416
99,port alfred,-33.5906,26.891,69.01,94,89,5.01,ZA,1611433416
100,manzanillo,20.3433,-77.1167,87.01,50,0,0.54,CU,1611433416
101,saskylakh,71.9167,114.0833,-33.63,81,66,5.57,RU,1611433416
102,ondorhaan,,,,,,,,
103,baruun-urt,46.6806,113.2792,6.24,88,2,10.83,MN,1611433417
104,port blair,11.6667,92.75,76.14,67,85,7.31,IN,1611433417
105,osterholz-scharmbeck,53.2333,8.8,37,93,75,4.61,DE,1611433417
106,korla,41.7597,86.1469,26.55,89,100,5.46,CN,1611433417
107,avarua,-21.2078,-159.775,84.2,70,68,8.05,CK,1611433417
108,lesosibirsk,58.2358,92.4828,-3.39,91,100,4.23,RU,1611433417
109,preobrazheniye,42.9019,133.9064,21.38,81,0,5.44,RU,1611433417
110,arraial do cabo,-22.9661,-42.0278,84.2,74,0,17.27,BR,1611433418
111,nicoya,10.1483,-85.452,89.6,48,20,18.41,CR,1611433418
112,jamestown,42.097,-79.2353,21.99,73,90,16.11,US,1611433418
113,zaysan,47.4667,84.8667,4.19,83,100,2.53,KZ,1611433418
114,jaque,7.5175,-78.1703,81.25,80,96,6.64,PA,1611433418
115,abonnema,4.7084,6.7931,75.2,73,100,2.3,NG,1611433418
116,mys shmidta,,,,,,,,
117,katha,,,,,,,,
118,guider,9.9342,13.9486,76.71,19,94,6.85,CM,1611433419
119,thompson,55.7435,-97.8558,-9.4,70,90,10.36,CA,1611433419
120,snezhnogorsk,69.1933,33.2531,5,78,40,13.42,RU,1611433419
121,tiksi,71.6872,128.8694,-42.34,79,35,5.32,RU,1611433419
122,oktyabrskoye,43.0645,44.7417,21.2,93,0,4.47,RU,1611433419
123,bathsheba,13.2167,-59.5167,82.4,61,20,14.97,BB,1611433419
124,kutum,14.2,24.6667,61.41,27,10,7.67,SD,1611433419
125,lazaro cardenas,17.9583,-102.2,83.55,60,100,7.43,MX,1611433419
126,yulara,-25.2406,130.9889,73.4,94,40,9.22,AU,1611433420
127,mitsamiouli,-11.3847,43.2844,81.93,71,100,5.19,KM,1611433420
128,cape town,-33.9258,18.4232,69.01,82,75,11.5,ZA,1611433093
129,adelaide,-34.9333,138.6,91,14,0,12.66,AU,1611433420
130,grand-santi,4.25,-54.3833,80.6,84,36,4.25,GF,1611433420
131,vung tau,10.346,107.0843,75.06,85,100,15.68,VN,1611433420
132,nizhneyansk,,,,,,,,
133,parati,-23.2178,-44.7131,84.2,51,75,3.44,BR,1611433421
134,randolph,35.7001,-79.8164,46.99,18,1,5.75,US,1611433421
135,yellowknife,62.456,-114.3525,-18.99,76,75,3.44,CA,1611433421
136,iwaki,37.05,140.8833,37.99,90,100,1.01,JP,1611433421
137,carnarvon,-24.8667,113.6333,73.4,64,75,13.8,AU,1611433421
138,kodiak,57.79,-152.4072,41,52,1,11.5,US,1611433421
139,broome,42.2506,-75.833,19.99,73,90,18.41,US,1611433421
140,pevek,69.7008,170.3133,-11.27,90,100,9.1,RU,1611433421
141,tuatapere,-46.1333,167.6833,55,84,98,8.01,NZ,1611433422
142,teahupoo,-17.8333,-149.2667,84.2,65,20,5.75,PF,1611433422
143,lorengau,-2.0226,147.2712,80.29,73,88,3.98,PG,1611433422
144,havoysund,70.9963,24.6622,14,79,90,18.41,NO,1611433422
145,biskamzha,53.4497,89.5272,-0.72,89,100,3.87,RU,1611433422
146,kaitangata,-46.2817,169.8464,62.01,46,100,13,NZ,1611433422
147,antofagasta,-23.65,-70.4,73.99,73,0,13.8,CL,1611433422
148,khamanon,30.8186,76.3508,49.01,80,12,5.26,IN,1611433423
149,hamilton,39.1834,-84.5333,35.01,40,1,4.61,US,1611433129
150,touros,-5.1989,-35.4608,82.4,65,40,13.8,BR,1611433423
151,port lincoln,-34.7333,135.8667,75.45,45,100,4.54,AU,1611433423
152,merauke,-8.4667,140.3333,78.75,87,76,9.69,ID,1611433423
153,shush,32.1942,48.2436,52.86,40,0,6.58,IR,1611433423
154,naze,28.3667,129.4833,62.04,89,25,11.34,JP,1611433423
155,guerrero negro,27.9769,-114.0611,63.91,54,94,8.46,MX,1611433423
156,bahia blanca,-38.7196,-62.2724,104.02,15,0,8.25,AR,1611433208
157,provideniya,64.3833,-173.3,6.33,83,39,4.05,RU,1611433424
158,saint-joseph,-21.3667,55.6167,78.8,73,0,5.75,RE,1611433424
159,guantanamo,20.1444,-75.2092,84.2,65,20,12.66,CU,1611433424
160,sorvag,,,,,,,,
161,sioux lookout,50.1001,-91.917,12.2,73,90,5.75,CA,1611433424
162,general roca,-39.0333,-67.5833,104,22,0,3.44,AR,1611433424
163,imeni poliny osipenko,52.4201,136.4853,-8.09,91,99,5.64,RU,1611433424
164,beloha,-25.1667,45.05,78.22,82,55,13.15,MG,1611433424
165,rawannawi,,,,,,,,
166,hami,42.8,93.45,24.01,82,100,4.59,CN,1611433153
167,kodinsk,58.6881,99.1844,-20.79,85,99,2.73,RU,1611433425
168,hovd,48.0056,91.6419,9.84,81,100,2.46,MN,1611433425
169,saldanha,-33.0117,17.9442,66.2,72,97,14.97,ZA,1611433425
170,sabang,5.8933,95.3214,81,72,94,10,ID,1611433425
171,tocopilla,-22.092,-70.1979,74.91,50,21,10.47,CL,1611433425
172,kholmogory,64.2229,41.656,6.8,85,90,6.71,RU,1611433426
173,san quintin,30.4833,-115.95,59.27,59,79,11.23,MX,1611433426
174,whitehorse,60.7161,-135.0538,6.8,85,90,8.05,CA,1611433426
175,westport,41.1415,-73.3579,33.8,23,1,21.85,US,1611433328
176,araouane,18.9048,-3.5265,68.41,17,0,10.02,ML,1611433426
177,saint simons,31.1352,-81.3901,59,67,1,13.8,US,1611433426
178,mar del plata,-38.0023,-57.5575,82.4,69,0,16.11,AR,1611433321
179,coihaique,-45.5752,-72.0662,68,22,0,11.5,CL,1611433426
180,ribeira grande,38.5167,-28.7,62.6,94,75,14.97,PT,1611433427
181,geraldton,-28.7667,114.6,69.8,73,75,8.05,AU,1611433427
182,kudahuvadhoo,2.6708,72.8944,83.34,64,98,5.57,MV,1611433427
183,amderma,,,,,,,,
184,mahebourg,-20.4081,57.7,78.8,83,40,2.3,MU,1611433427
185,miraslau,46.3667,23.7167,33.8,93,75,2.3,RO,1611433427
186,tuktoyaktuk,69.4541,-133.0374,-20.2,76,1,18.41,CA,1611433427
187,saint george,37.1041,-113.5841,48.99,43,20,5.75,US,1611433427
188,marsh harbour,26.5412,-77.0636,74.16,70,6,9.62,BS,1611433428
189,muros,42.7762,-9.0603,55.99,85,100,5.01,ES,1611433428
190,quattro castella,44.635,10.4743,45,93,40,8.05,IT,1611433428
191,beringovskiy,63.05,179.3167,-9.63,88,1,2.95,RU,1611433428
192,urambo,-5.0667,32.05,64.99,89,100,1.81,TZ,1611433428
193,waipawa,-41.4122,175.5153,66.2,68,100,23.02,NZ,1611433428
194,kjollefjord,70.9457,27.3465,20.3,93,100,26.22,NO,1611433428
195,honningsvag,70.9821,25.9704,22.42,94,100,34.16,NO,1611433428
196,alice springs,-23.7,133.8833,86,48,92,18.41,AU,1611433429
197,tual,-5.6667,132.75,83.26,77,98,13.18,ID,1611433429
198,asau,46.4333,26.4,39.99,59,93,4.12,RO,1611433429
199,vila velha,-20.3297,-40.2925,82.4,74,20,10.36,BR,1611433429
200,le mars,42.7942,-96.1656,28,63,90,11.5,US,1611433429
201,nikolskoye,59.7035,30.7861,33.8,86,90,6.71,RU,1611433429
202,san patricio,28.017,-97.5169,69.8,88,90,14.97,US,1611433429
203,dingle,10.9995,122.6711,74.53,87,100,1.32,PH,1611433429
204,gulf gate estates,27.2517,-82.5147,75,78,1,9.22,US,1611433430
205,katangli,51.7102,143.2326,-2.63,87,100,4.61,RU,1611433430
206,windhoek,-22.5594,17.0832,66.2,94,100,1.14,NA,1611433430
207,san cristobal,7.7669,-72.225,86,54,40,11.5,VE,1611433258
208,myaundzha,63.0494,147.1858,-20.07,85,99,2.1,RU,1611433430
209,ottawa,45.4112,-75.6981,12,61,20,16.11,CA,1611433346
210,mahadday weyne,,,,,,,,
211,college,64.8569,-147.8028,21.99,78,75,2.95,US,1611433430
212,lasa,46.6166,10.7002,37.4,87,40,1.14,IT,1611433430
213,east london,-33.0153,27.9116,76.12,76,78,21.94,ZA,1611433214
214,norilsk,69.3535,88.2027,-35.39,68,37,0.6,RU,1611433431
215,aripuana,-9.1667,-60.6333,83.88,80,88,0.85,BR,1611433431
216,grindavik,63.8424,-22.4338,30.2,74,75,25.32,IS,1611433431
217,kirovskiy,45.0917,133.5136,5.86,90,0,5.5,RU,1611433431
218,lafia,8.4833,8.5167,81.63,16,99,5.14,NG,1611433431
219,caravelas,-17.7125,-39.2481,80.02,68,61,8.03,BR,1611433431
220,sabha,27.0377,14.4283,49.01,44,0,2.51,LY,1611433432
221,siuna,13.7332,-84.7773,86.76,49,23,6.93,NI,1611433432
222,yuli,9.6989,10.2744,76.35,18,100,6.6,NG,1611433432
223,waddan,29.1614,16.139,58.35,34,0,5.82,LY,1611433432
224,nerekhta,57.4588,40.5747,32,93,90,6.71,RU,1611433432
225,victoria,22.2855,114.1577,66,85,46,8.59,HK,1611433386
226,zapolyarnyy,69.4154,30.8136,12.2,79,100,17.27,RU,1611433270
227,paracuru,-3.41,-39.0306,81,76,83,15.01,BR,1611433432
228,marawi,7.9986,124.2928,73.99,93,100,5.01,PH,1611433432
229,qingyuan,23.7,113.0333,64.99,72,20,6.71,CN,1611433433
230,albesti,47.7,27.0667,36,87,0,4.61,RO,1611433433
231,barentsburg,,,,,,,,
232,evensk,61.95,159.2333,-13.31,83,99,9.06,RU,1611433433
233,kruisfontein,-34.0033,24.7314,71.01,77,100,5.01,ZA,1611433433
234,margate,51.3813,1.3862,37,71,0,4,GB,1611433433
235,matara,5.9485,80.5353,72.82,88,0,7.99,LK,1611433433
236,talnakh,69.4865,88.3972,-34.19,66,62,1.12,RU,1611433433
237,nelson bay,-32.7167,152.15,72,77,0,10.11,AU,1611433434
238,dargaville,-35.9333,173.8833,66.94,72,14,10.09,NZ,1611433434
239,husavik,66.0449,-17.3389,30.2,93,90,20.71,IS,1611433434
240,codrington,-38.2667,141.9667,64.72,62,100,7.74,AU,1611433434
241,iqaluit,63.7506,-68.5145,12.2,85,20,12.66,CA,1611433434
242,rameshki,57.3439,36.0453,32.61,99,99,5.21,RU,1611433434
243,castro,-24.7911,-50.0119,72.03,83,100,2.91,BR,1611433434
244,lichinga,-13.3128,35.2406,66.2,94,75,9.22,MZ,1611433434
245,dryden,49.7833,-92.7503,15.8,79,90,12.66,CA,1611433387
246,huarmey,-10.0681,-78.1522,76.73,64,6,9.73,PE,1611433435
247,barra patuca,15.8,-84.2833,80.49,76,70,9.91,HN,1611433435
248,cherskiy,68.75,161.3,-24.47,86,100,4.43,RU,1611433435
249,haines junction,60.7522,-137.5108,3.2,85,100,1.48,CA,1611433435
250,kosh-agach,50,88.6667,-16.24,75,76,1.01,RU,1611433435
251,tanem,63.3078,10.4319,30.99,93,75,4.61,NO,1611433435
252,kaspiyskiy,45.3929,47.3707,35.73,89,64,14.58,RU,1611433268
253,batemans bay,-35.7167,150.1833,66.99,94,13,1.99,AU,1611433436
254,sambava,-14.2667,50.1667,77.52,87,49,6.33,MG,1611433436
255,aitape,-3.1374,142.3475,78.53,79,90,3.94,PG,1611433436
256,timra,62.487,17.3257,30.2,100,40,6.91,SE,1611433436
257,mildura,-34.2,142.15,71.6,35,95,5.75,AU,1611433436
258,ucluelet,48.9329,-125.5528,43,81,75,4.61,CA,1611433436
259,port elizabeth,-33.918,25.5701,68,88,40,18.41,ZA,1611433433
260,abu samrah,35.3029,37.1841,40.89,66,0,8.03,SY,1611433436
261,fort saint john,,,,,,,,
262,lata,40.1629,-8.3327,57,94,100,3,PT,1611433437
263,guajara-mirim,,,,,,,,
264,varhaug,58.6147,5.6457,32,93,75,6.91,NO,1611433437
265,ussel,45.55,2.3167,39.99,42,100,3.62,FR,1611433437
266,zhumadian,32.9794,114.0294,39.18,79,52,3.4,CN,1611433437
267,coquimbo,-29.9533,-71.3436,69.8,68,20,12.66,CL,1611433396
268,itirapina,-22.2528,-47.8228,86,48,40,6.91,BR,1611433437
269,quang ngai,15.1167,108.8,65.53,91,1,1.74,VN,1611433213
270,itarema,-2.9248,-39.9167,82.44,70,94,14.2,BR,1611433438
271,cartagena,10.3997,-75.5144,86,70,75,16.11,CO,1611433406
272,tumannyy,,,,,,,,
273,tura,25.5198,90.2201,57,65,100,2.06,IN,1611433438
274,vardo,70.3705,31.1107,23.13,96,100,33.11,NO,1611433438
275,amuntai,-2.4177,115.2494,72.68,95,96,1.32,ID,1611433438
276,jalu,29.0331,21.5482,52.12,43,0,8.75,LY,1611433438
277,ponta do sol,32.6667,-17.1,61,78,100,1.99,PT,1611433439
278,zhetybay,,,,,,,,
279,warqla,,,,,,,,
280,nyrob,60.733,56.7202,-8.7,85,99,6.33,RU,1611433439
281,aden,12.7794,45.0367,76.37,71,89,14.63,YE,1611433364
282,kuche,,,,,,,,
283,maumere,-8.6199,122.2111,80.2,78,87,5.3,ID,1611433439
284,waverley,-25.7023,28.2591,79,60,100,8.05,ZA,1611433439
285,bonthe,7.5264,-12.505,78.96,79,1,10.18,SL,1611433440
286,saleaula,,,,,,,,
287,thanh hoa,19.8,105.7667,60.96,92,0,2.91,VN,1611433440
288,nishihara,26.1842,127.7558,66.2,77,75,21.85,JP,1611433440
289,san juan bautista,-14.0108,-75.7358,80.6,57,0,11.5,PE,1611433440
290,aswan,24.0934,32.907,60.78,30,0,10.58,EG,1611433440
291,palana,59.1167,159.9667,-3.73,96,100,2.66,RU,1611433440
292,eureka,40.8021,-124.1637,51.01,70,0,7,US,1611433441
293,cervo,43.6702,-7.4101,53.01,90,100,11.99,ES,1611433441
294,kirakira,-10.4544,161.9205,80.91,74,100,6.17,SB,1611433441
295,umzimvubu,,,,,,,,
296,cayenne,4.9333,-52.3333,78.8,89,75,6.91,GF,1611433441
297,miranorte,,,,,,,,
298,marsabit,2.3284,37.9899,68.5,73,11,5.48,KE,1611433441
299,am timan,11.0297,20.2827,77.81,20,51,4.81,TD,1611433441
300,vacaria,-28.5122,-50.9339,81,47,47,5.99,BR,1611433211
301,rundu,-17.9333,19.7667,69.69,87,100,4.23,NA,1611433442
302,brownsville,25.9018,-97.4975,80.6,61,90,14.97,US,1611433442
303,attawapiskat,,,,,,,,
304,chokurdakh,70.6333,147.9167,-37.16,83,87,6.35,RU,1611433442
305,camana,-16.6228,-72.7111,74.1,68,45,8.46,PE,1611433442
306,lagoa,39.05,-27.9833,62.29,83,100,13.78,PT,1611433442
307,petropavlovsk-kamchatskiy,53.0452,158.6483,-4,65,3,8.95,RU,1611433443
308,buritis,-15.6178,-46.4233,82.76,57,74,5.57,BR,1611433443
309,adrar,20.5022,-10.0711,68.68,19,2,9.35,MR,1611433443
310,el alto,-4.2714,-81.2147,86,58,0,11.5,PE,1611433443
311,yandoon,,,,,,,,
312,sept-iles,50.2001,-66.3821,21.99,73,100,10.36,CA,1611433277
313,xingcheng,40.6167,120.7167,25.23,91,82,1.34,CN,1611433443
314,antalaha,-14.9003,50.2788,76.62,87,25,5.64,MG,1611433443
315,sitka,57.0531,-135.33,37.4,93,90,7.52,US,1611433444
316,santa fe,-31.6333,-60.7,98.01,38,45,8.01,AR,1611433196
317,tidore,,,,,,,,
318,morayfield,-27.1167,152.95,68,97,100,1.88,AU,1611433444
319,wilmington island,32.0036,-80.9737,60.01,41,14,1.01,US,1611433444
320,ouagadougou,12.3642,-1.5383,75.2,20,73,4.61,BF,1611433444
321,xuddur,4.1213,43.8894,78.49,34,86,12.3,SO,1611433444
322,gao,16.6362,1.637,70.2,18,0,11.34,ML,1611433402
323,ylivieska,64.0833,24.55,34,95,99,8.01,FI,1611433445
324,taburi,,,,,,,,
325,ossora,59.2353,163.0719,-5.22,87,35,4.45,RU,1611433445
326,faanui,-16.4833,-151.75,81.3,69,5,12.93,PF,1611433445
327,krasnoye,49.9145,24.6134,41,87,0,6.71,UA,1611433445
328,kannad,20.2667,75.1333,68.99,39,0,6.58,IN,1611433445
329,nantucket,41.2835,-70.0995,30.99,47,75,18.41,US,1611433308
330,pechora,65.1472,57.2244,-15.84,85,100,7.34,RU,1611433445
331,itumbiara,-18.4192,-49.2153,86.97,48,99,5.48,BR,1611433446
332,poso,-1.3959,120.7524,79,84,100,2.71,ID,1611433446
333,timizart,36.8,4.2667,49.59,86,43,8.16,DZ,1611433446
334,arman,59.7,150.1667,-16.67,79,0,8.59,RU,1611433446
335,hanzhong,33.0728,107.0303,46.11,55,100,1.7,CN,1611433446
336,wanning,18.8003,110.3967,65.25,87,100,1.34,CN,1611433446
337,chaumont,48.1167,5.1333,37,91,98,7,FR,1611433446
338,reshetylivka,49.565,34.0782,38.62,96,100,10.74,UA,1611433446
339,copiapo,-27.3667,-70.3333,69.8,60,20,11.5,CL,1611433351
340,meulaboh,4.1363,96.1285,75.94,89,67,3.53,ID,1611433447
341,turbat,26.0023,63.044,52.7,28,0,11.9,PK,1611433447
342,krasnoturansk,54.3186,91.5639,1.4,71,0,3.04,RU,1611433447
343,buala,-8.145,159.5921,78.62,69,76,3.83,SB,1611433447
344,comodoro rivadavia,-45.8667,-67.5,66.2,42,20,16.11,AR,1611433447
345,redmond,47.674,-122.1215,42.01,85,1,1.99,US,1611433392
346,shimanovsk,52,127.7,-18.74,86,5,6.08,RU,1611433447
347,atasu,48.6814,71.6433,-8.07,91,59,3.71,KZ,1611433448
348,kitob,39.0843,66.8332,24.8,74,0,4.61,UZ,1611433448
349,kuvshinovo,57.0295,34.1725,30.61,99,90,4.99,RU,1611433448
350,ouango,4.3133,22.5552,77.05,31,51,1.45,CF,1611433448
351,sayat,38.7839,63.8803,30.2,74,0,9.22,TM,1611433448
352,chingola,-12.529,27.8838,61.74,99,100,2.62,ZM,1611433448
353,bubaque,11.2833,-15.8333,78.37,58,15,11.39,GW,1611433448
354,teguise,29.0605,-13.564,64.4,72,20,10.36,ES,1611433448
355,portree,57.4129,-6.1942,30.99,90,100,1.01,GB,1611433449
356,srisailam,16.0833,78.8667,65.39,82,0,3.04,IN,1611433449
357,tabulbah,,,,,,,,
358,banda aceh,5.5577,95.3222,77.27,82,76,7.99,ID,1611433449
359,chicama,-7.8447,-79.1469,73.4,83,40,9.22,PE,1611433449
360,lakhdenpokhya,61.5198,30.1992,34,94,100,8.55,RU,1611433449
361,krasnyy yar,46.5331,48.3456,32,93,40,6.71,RU,1611433449
362,salalah,17.0151,54.0924,71.6,26,0,11.5,OM,1611433449
363,divnogorsk,55.9594,92.3619,-4,84,0,4.68,RU,1611433450
364,klyuchi,52.2667,79.1667,-0.18,93,100,6.17,RU,1611433450
365,marfino,55.7028,37.3822,35.01,100,90,6.71,RU,1611433450
366,tilichiki,60.4667,166.1,-10.93,90,1,7.7,RU,1611433450
367,maniitsoq,65.4167,-52.9,18.95,78,0,5.03,GL,1611433450
368,wawa,9.9022,4.4192,80.92,16,0,4.65,NG,1611433450
369,bamnet narong,15.4992,101.6897,70.79,51,3,0.94,TH,1611433450
370,quatre cocos,-20.2078,57.7625,79,83,40,2.3,MU,1611433450
371,vilhena,-12.7406,-60.1458,75.2,94,75,10.36,BR,1611433451
372,mweka,-4.85,21.5667,69.93,95,98,0.85,CD,1611433451
373,pringsewu,-5.3582,104.9744,74.37,92,100,2.53,ID,1611433451
374,manicore,-5.8092,-61.3003,86,74,40,11.5,BR,1611433391
375,cabo san lucas,22.8909,-109.9124,73.4,56,40,11.5,MX,1611433180
376,narsaq,60.9167,-46.05,26.6,33,1,23.02,GL,1611433451
377,banjar,-8.19,114.9675,78.8,89,20,6.91,ID,1611433451
378,dhidhdhoo,6.8833,73.1,81.68,74,8,9.22,MV,1611433451
379,okitipupa,6.5047,4.7839,75.13,85,100,3.06,NG,1611433452
380,axim,4.8699,-2.2405,79.36,82,44,8.23,GH,1611433452
381,astana,51.1801,71.446,-4,77,90,4.47,KZ,1611433402
382,alotau,,,,,,,,
383,halifax,44.6453,-63.5724,30.2,93,99,5.75,CA,1611433409
384,katsuura,35.1333,140.3,39.2,87,75,23.02,JP,1611433452
385,san gabriel,34.0961,-118.1058,53.6,87,90,5.75,US,1611433452
386,khonuu,,,,,,,,
387,yelizovo,53.1873,158.3805,-4,65,27,8.95,RU,1611433453
388,mancio lima,-7.6142,-72.8958,77,100,75,2.3,BR,1611433453
389,namibe,-15.1961,12.1522,74.66,75,99,5.19,AO,1611433453
390,bilma,18.6853,12.9164,61.65,26,0,6.73,NE,1611433453
391,la ronge,55.1001,-105.2842,-13,70,94,6.91,CA,1611433453
392,klaksvik,62.2266,-6.589,32,86,75,14.47,FO,1611433453
393,lamar,33.6668,-95.5836,51.01,66,90,11.5,US,1611433453
394,gazimurskiy zavod,51.5461,118.3266,9.41,91,100,1.77,RU,1611433453
395,hokitika,-42.7167,170.9667,54.23,83,100,1.48,NZ,1611433454
396,bolobo,-2.1667,16.2333,74.97,86,91,3.62,CD,1611433454
397,jesus maria,-30.9815,-64.0942,95,45,0,9.22,AR,1611433454
398,kankon,15.0167,74.0167,77,94,2,2.3,IN,1611433454
399,madang,-5.2246,145.7966,77.09,86,100,3.6,PG,1611433454
400,prince rupert,54.3161,-130.3201,35.6,86,90,6.91,CA,1611433454
401,boa vista,2.8197,-60.6733,82.4,65,75,5.75,BR,1611433163
402,palmer,42.1584,-72.3287,26.01,47,0,1.01,US,1611433455
403,labytnangi,66.6572,66.4183,-37.77,80,11,3.74,RU,1611433408
404,thinadhoo,0.5333,72.9333,82.78,68,92,4.81,MV,1611433455
405,kahului,20.8947,-156.47,77,65,40,18.41,US,1611433455
406,casper,42.8666,-106.3131,24.01,86,90,12.66,US,1611433455
407,mundo nuevo,18.7,-95.5,76.42,77,70,3.94,MX,1611433455
408,sterling,39.0062,-77.4286,34,32,20,18.41,US,1611433455
409,vieques,18.425,-65.8329,82.4,65,40,14.97,PR,1611433455
410,sola,-13.8833,167.55,81.88,79,90,11.05,VU,1611433456
411,wembley,-31.9333,115.8,64.99,88,0,3.44,AU,1611433456
412,havre-saint-pierre,50.2334,-63.5986,23,93,90,16.11,CA,1611433456
413,pacific grove,36.6177,-121.9166,54,76,1,6.91,US,1611433456
414,kenai,60.5544,-151.2583,37,75,90,21.85,US,1611433456
415,santa clara,22.4,-79.9667,82.4,51,40,4.61,CU,1611433456
416,black river,18.0264,-77.8487,84,69,40,17.27,JM,1611433456
417,cairns,-16.9167,145.7667,77,78,72,8.05,AU,1611433456
418,plettenberg bay,-34.0527,23.3716,68.59,72,38,7.92,ZA,1611433457
419,methoni,36.8197,21.7049,59,82,52,13.8,GR,1611433290
420,kargasok,59.0556,80.8572,-49.41,76,52,6.24,RU,1611433457
421,kerki,,,,,,,,
422,sujawal,,,,,,,,
423,vaitupu,,,,,,,,
424,ust-bolsheretsk,,,,,,,,
425,kyle of lochalsh,,,,,,,,
426,galiwinku,,,,,,,,
427,barranca,-10.75,-77.7667,76.42,63,2,10.11,PE,1611433458
428,along,28.1667,94.7667,49.66,65,1,2.24,IN,1611433458
429,nome,64.5011,-165.4064,32,93,90,4.18,US,1611433458
430,marsa matruh,31.3525,27.2453,51.8,71,0,2.48,EG,1611433458
431,utiroa,,,,,,,,
432,svetlogorsk,52.6333,29.7333,32.02,98,60,9.08,BY,1611433458
433,vila,42.0304,-8.1588,48.99,95,91,15.32,PT,1611433458
434,lebu,-37.6167,-73.65,65.39,76,6,18.32,CL,1611433458
435,ballina,-28.8667,153.5667,64.4,88,39,3.44,AU,1611433459
436,north bend,43.4065,-124.2243,46.99,71,1,3.44,US,1611433459
437,ekhabi,53.5102,142.9671,-11.15,85,100,3.42,RU,1611433459
438,kavaratti,10.5669,72.642,81.05,72,26,9.48,IN,1611433459
439,hammerfest,70.6634,23.6821,14,79,90,18.41,NO,1611433459
440,les cayes,18.2,-73.75,80.02,72,52,9.31,HT,1611433459
441,los llanos de aridane,28.6585,-17.9182,66.2,77,75,5.75,ES,1611433459
442,atambua,-9.1061,124.8925,75.67,88,94,3.91,ID,1611433460
443,airai,-8.9266,125.4092,61.86,100,93,1.86,TL,1611433460
444,polewali,-3.4324,119.3435,77.23,75,100,2.37,ID,1611433460
445,port hedland,-20.3167,118.5667,82.4,65,5,12.66,AU,1611433460
446,ostrovnoy,68.0531,39.5131,5.92,93,100,18.66,RU,1611433460
447,portland,45.5234,-122.6762,44.01,65,20,3.44,US,1611433230
448,yangmei,24.1023,112.5618,52.59,75,0,2.77,CN,1611433460
449,kenora,49.8167,-94.4337,19.4,79,90,11.5,CA,1611433450
450,namatanai,-3.6667,152.4333,79.48,77,90,4.65,PG,1611433460
451,kosonsoy,41.2561,71.5508,24.8,54,56,4.61,UZ,1611433461
452,statesboro,32.4488,-81.7832,64.4,44,1,5.75,US,1611433461
453,ust-kuyga,70.0167,135.6,-44.3,77,90,1.68,RU,1611433461
454,kangaatsiaq,68.3065,-53.4641,11.66,83,45,5.79,GL,1611433461
455,mahbubabad,17.6167,80.0167,66.63,89,0,4.85,IN,1611433461
456,winnemucca,40.973,-117.7357,37.4,70,1,6.91,US,1611433461
457,deep river,46.1001,-77.4995,10.99,56,1,12.66,CA,1611433461
458,lumphat,13.4878,106.9816,69.75,80,30,4.88,KH,1611433461
459,wloclawek,52.6482,19.0678,35.01,90,100,3,PL,1611433462
460,kushima,31.4583,131.2333,57,100,100,3,JP,1611433462
461,laishevo,55.4046,49.5504,17.6,86,90,13.42,RU,1611433462
462,winneba,5.3511,-0.6231,80.6,83,0,3.44,GH,1611433462
463,tiznit,29.5833,-9.5,58.55,82,34,1.61,MA,1611433462
464,padang,-0.9492,100.3543,73.4,94,75,2.3,ID,1611433462
465,zinacatepec,18.3333,-97.25,83.16,20,100,4.65,MX,1611433462
466,moose factory,51.2585,-80.6094,-0.4,65,1,9.22,CA,1611433463
467,baculin,7.4525,126.5842,76.42,77,100,5.17,PH,1611433463
468,ahipara,-35.1667,173.1667,66.47,71,34,8.77,NZ,1611433463
469,wajima,37.4,136.9,45.14,83,100,17.6,JP,1611433463
470,akhtanizovskaya,45.32,37.1,46,70,70,13.42,RU,1611433463
471,sembe,1.6481,14.5806,77.09,60,96,3.42,CG,1611433463
472,shchelyayur,,,,,,,,
473,grand river south east,,,,,,,,
474,jumla,29.2747,82.1838,33.93,65,0,5.86,NP,1611433464
475,avera,33.194,-82.5271,59,36,1,5.75,US,1611433464
476,shubarkuduk,49.1447,56.4872,9.01,94,100,10.58,KZ,1611433464
477,brigantine,39.4101,-74.3646,33.8,34,1,25.32,US,1611433464
478,balkanabat,39.5108,54.3671,35.91,70,100,10.78,TM,1611433464
479,laguna,38.421,-121.4238,53.01,76,40,11.5,US,1611433464
480,ola,59.5833,151.2833,-15.29,82,0,9.01,RU,1611433464
481,a coruna,43.3713,-8.396,55.99,82,40,16.11,ES,1611433465
482,shimoda,34.6667,138.95,37,94,100,5.01,JP,1611433465
483,itaqui,-29.1253,-56.5531,93.34,39,55,3.8,BR,1611433465
484,yenagoa,4.9247,6.2642,79.34,77,100,6.46,NG,1611433465
485,tahoua,14.8888,5.2692,75.2,14,0,4.61,NE,1611433465
486,tambul,,,,,,,,
487,pisco,-13.7,-76.2167,80.6,57,0,11.5,PE,1611433466
488,porto novo,6.4965,2.6036,80.6,61,100,4.61,BJ,1611433466
489,rafai,4.95,23.9167,77.11,32,100,2.95,CF,1611433466
490,conceicao do araguaia,-8.2578,-49.2647,84.67,76,10,5.1,BR,1611433466
491,eyl,7.9803,49.8164,73.94,71,100,18.3,SO,1611433466
492,yeppoon,-23.1333,150.7333,71.6,78,75,6.91,AU,1611433466
493,alyangula,-13.8483,136.4192,77,100,40,7,AU,1611433466
494,zhezkazgan,47.8043,67.7144,-7.35,89,0,2.71,KZ,1611433466
495,bangolo,7.0069,-7.475,75.88,20,0,1.79,CI,1611433466
496,nouakchott,18.0858,-15.9785,75.2,7,14,8.05,MR,1611433433
497,sonoma,38.55,-122.9011,57,66,20,2.93,US,1611433467
498,abaete,-19.16,-45.4458,81.97,59,0,5.57,BR,1611433271
499,auki,-8.7676,160.7034,76.64,76,69,3.89,SB,1611433467
500,cap-aux-meules,47.3821,-61.8597,26.6,74,100,21.85,CA,1611433467
501,srednekolymsk,67.45,153.6833,-29.74,84,100,8.41,RU,1611433467
502,nagyecsed,47.8655,22.3916,46.4,71,90,4.61,HU,1611433467
503,tayoltita,24.0833,-105.9333,77.95,29,54,5.99,MX,1611433467
504,znamenskoye,57.1281,73.8282,-42.57,80,14,4.59,RU,1611433468
505,otane,-39.8833,176.6333,70,67,50,17,NZ,1611433468
506,tala,30.6803,30.9429,47.5,69,0,4.14,EG,1611433468
507,saint-augustin,51.226,-58.6502,31.64,99,100,9.28,CA,1611433468
508,nizhniy tsasuchey,50.5167,115.1333,8.26,89,100,1.95,RU,1611433468
509,parana,-31.732,-60.5238,96.01,38,34,8.01,AR,1611433282
510,gizo,-8.103,156.8419,80.94,73,100,6.87,SB,1611433468
511,myitkyina,25.3833,97.4,58.84,71,32,1.81,MM,1611433468
512,bargal,,,,,,,,
513,praia da vitoria,38.7333,-27.0667,62.6,94,75,20.07,PT,1611433469
514,dudinka,69.4058,86.1778,-40.7,78,23,1.21,RU,1611433469
515,almeirim,-1.5233,-52.5817,90.7,41,5,6.93,BR,1611433469
516,oistins,13.0667,-59.5333,82.4,61,20,14.97,BB,1611433216
517,ocos,14.5094,-92.1933,89.6,62,40,10.36,GT,1611433469
518,okato,-39.2,173.8833,63,92,100,4,NZ,1611433469
519,purranque,-40.9167,-73.1667,78.8,48,75,12.66,CL,1611433469
520,hearst,49.6835,-83.6665,6.8,66,97,2.3,CA,1611433470
521,moscow,55.7522,37.6156,35.01,100,90,6.71,RU,1611433369
522,loiza,18.4313,-65.8802,82.4,65,40,14.97,PR,1611433470
523,jarjis,,,,,,,,
524,puksoozero,62.5903,40.6066,23.54,98,100,7.61,RU,1611433470
525,venustiano carranza,19.43,-99.0992,75,27,90,4.61,MX,1611433470
526,tongchuan,35.0806,109.0897,34.9,80,82,3.76,CN,1611433470
527,tunduru,,,,,,,,
528,kazalinsk,,,,,,,,
529,nago,26.5881,127.9761,66.2,77,75,21.85,JP,1611433471
530,leeuwarden,53.2014,5.8086,35.01,93,75,2.3,NL,1611433471
531,amapa,1,-52,78.64,93,100,4.45,BR,1611433471
532,gornopravdinsk,60.05,69.9,-42.14,80,38,2.57,RU,1611433471
533,slave lake,55.2834,-114.769,-0.4,71,90,6.91,CA,1611433471
534,hillsboro,45.5229,-122.9898,45,75,1,2.57,US,1611433316
535,landeck,47.1301,10.5636,32,92,96,3.49,AT,1611433471
536,sorland,67.667,12.6934,26.29,92,86,13.91,NO,1611433472
537,montrose,38.4166,-108.2673,42.8,36,1,12.66,US,1611433472
538,mecca,21.4267,39.8261,75.34,52,1,2.17,SA,1611433472
539,takoradi,4.8845,-1.7554,79.86,81,0,10.89,GH,1611433472
540,kavieng,-2.5744,150.7967,81.37,78,100,6.8,PG,1611433472
541,sentyabrskiy,,,,,,,,
542,nerja,36.7585,-3.8873,59,76,82,8.99,ES,1611433213
543,kapuskasing,49.4169,-82.4331,5,56,100,2.15,CA,1611433473
544,abha,18.2164,42.5053,55.4,38,14,4.61,SA,1611433248
545,taoudenni,22.6783,-3.9836,68.86,19,0,9.82,ML,1611433473
546,samusu,,,,,,,,
547,ibirite,-20.0219,-44.0589,84.2,39,40,11.5,BR,1611433473
548,camacha,33.0833,-16.3333,60.8,94,40,3.44,PT,1611433473
549,beyneu,45.3167,55.2,33.12,94,100,7.76,KZ,1611433473
550,oranjemund,-28.55,16.4333,64.54,81,93,15.75,NA,1611433473
551,forio,40.7342,13.8646,57,64,1,8.99,IT,1611433382
552,duku,11.2361,4.9073,77.83,17,9,7.49,NG,1611433474
553,kirksville,40.1948,-92.5833,34,37,40,13.8,US,1611433474
554,zhigalovo,54.8097,105.1578,-5.84,87,100,1.48,RU,1611433474
555,warrnambool,-38.3833,142.4833,62.01,87,100,9.1,AU,1611433474
556,namwala,-15.7504,26.4384,66.09,97,100,4.34,ZM,1611433474
557,markova,48.6758,24.4138,39.2,81,80,5.26,UA,1611433474
558,nabire,-3.3667,135.4833,74.61,87,69,3.42,ID,1611433475
559,borujerd,33.8973,48.7516,31.24,79,94,0.83,IR,1611433475
560,rungata,,,,,,,,
561,tsihombe,,,,,,,,
562,smolenka,52.1352,113.4974,14,79,40,2.24,RU,1611433475
563,ponta delgada,37.7333,-25.6667,63,100,75,10.36,PT,1611433475
564,bara,10.3744,10.7288,74.62,20,100,7.65,NG,1611433475
565,russell,32.3502,-85.1999,66,27,1,5.75,US,1611433475
566,urumqi,43.801,87.6005,10.4,85,0,2.24,CN,1611433476
567,rio grande,-32.035,-52.0986,84.2,65,40,11.5,BR,1611433476
568,suao,,,,,,,,
569,gushikawa,26.3544,127.8686,66.2,77,75,21.85,JP,1611433476
570,quelimane,-17.8786,36.8883,78.8,83,75,9.22,MZ,1611433476
571,berlevag,70.8578,29.0864,22.5,94,100,30.27,NO,1611433476
572,yar-sale,66.8333,70.8333,-40,81,16,2.98,RU,1611433476
573,mehamn,71.0357,27.8492,21.38,94,100,27.56,NO,1611433476
574,tabas,33.5959,56.9244,30.2,24,0,4.61,IR,1611433477
575,rabak,13.1809,32.74,76.69,26,15,11.88,SD,1611433477
576,batagay-alyta,67.8006,130.4114,-40.09,74,79,1.14,RU,1611433477
577,riyadh,24.6877,46.7219,50,29,0,4.61,SA,1611433477
578,kurilsk,45.2333,147.8833,18.9,93,99,6.8,RU,1611433477
579,ondjiva,-17.0667,15.7333,74.86,37,100,4.32,AO,1611433477
580,cirpan,,,,,,,,
581,kaitong,44.8135,123.15,10.56,93,0,6.91,CN,1611433477
582,nykobing,,,,,,,,
583,waterloo,43.4668,-80.5164,19.4,68,90,10.36,CA,1611433408
584,la libertad,-2.2333,-80.9,86,66,0,8.05,EC,1611433478
585,vila franca do campo,37.7167,-25.4333,63,100,75,10.36,PT,1611433478
586,miramar,25.9873,-80.2323,81,47,20,7.14,US,1611433478
587,dolinsk,47.35,142.8,-11.2,77,40,8.66,RU,1611433478
588,mingaora,34.7758,72.3625,37.9,67,0,6.85,PK,1611433478
589,el paso,31.8001,-106.2005,63,36,20,14.97,US,1611433478
590,natal,-5.795,-35.2094,84.2,61,40,20.71,BR,1611433195
591,kommunar,59.6206,30.39,33.8,86,90,6.71,RU,1611433479
592,tanete,-3.9443,119.7848,76.5,83,100,2.24,ID,1611433479
593,kologriv,58.8275,44.3178,19.42,97,100,4.27,RU,1611433479
594,victoria point,-27.5833,153.3,70,76,74,4.94,AU,1611433479
595,kuliyapitiya,7.4688,80.0401,73.4,88,0,4.61,LK,1611433479
596,san ramon de la nueva oran,-23.1322,-64.326,98.01,44,94,3.44,AR,1611433479
597,mersing,2.4312,103.8405,73.4,94,91,5.75,MY,1611433479
598,safaga,26.7292,33.9365,60.8,55,0,8.05,EG,1611433480
599,khandyga,62.6667,135.6,-45.58,78,100,1.61,RU,1611433480
600,qena,26.1615,32.7183,55.4,44,0,3.44,EG,1611433480
601,necochea,-38.5473,-58.7368,87.98,38,0,13.4,AR,1611433480
602,keti bandar,24.1447,67.4497,64,27,0,7.67,PK,1611433480
603,omboue,-1.5746,9.2618,78.01,84,100,4.43,GA,1611433480
604,iquitos,-3.7481,-73.2472,84.2,70,75,5.75,PE,1611433394
605,teguldet,57.3064,88.1667,-5.55,92,100,3.89,RU,1611433480
