,City,Lat,Lng,Max Temp,Humidity,Cloudiness,Wind Speed,Country,Date
0,barrow,71.2906,-156.7887,-9.4,77,90,5.75,US,1611788939
1,new norfolk,-42.7826,147.0587,59,53,63,1.99,AU,1611788939
2,rio blanco,18.8333,-97.15,68.72,70,42,7.27,MX,1611788940
3,bredasdorp,-34.5322,20.0403,55.4,76,86,5.75,ZA,1611788941
4,luderitz,-26.6481,15.1594,67.71,61,0,27.29,NA,1611788942
5,hobart,-42.8794,147.3294,59,47,75,8.05,AU,1611788719
6,busselton,-33.65,115.3333,55,81,0,1.99,AU,1611788943
7,castro,-24.7911,-50.0119,66.74,93,100,5.1,BR,1611788780
8,bara,10.3744,10.7288,74.88,17,11,11.21,NG,1611788944
9,albany,42.6001,-73.9662,28.99,61,87,14,US,1611788780
10,punta arenas,-53.15,-70.9167,46.4,66,75,21.85,CL,1611788945
11,hithadhoo,-0.6,73.0833,81.41,78,98,15.88,MV,1611788946
12,broome,42.2506,-75.833,26.01,86,90,8.05,US,1611788947
13,aklavik,68.2191,-135.0107,-13,84,100,2.3,CA,1611788947
14,nizhniy tsasuchey,50.5167,115.1333,-17.54,82,12,8.23,RU,1611788947
15,nikolskoye,59.7035,30.7861,34,86,90,2.24,RU,1611788747
16,mataura,-46.1927,168.8643,53.01,76,97,17,NZ,1611788947
17,kapaa,22.0752,-159.319,78.8,78,75,18.41,US,1611788948
18,rikitea,-23.1203,-134.9692,79.99,73,91,11.79,PF,1611788948
19,chokurdakh,70.6333,147.9167,-14.53,89,100,12.75,RU,1611788948
20,boyle,37.6334,-84.8666,32,100,90,4.61,US,1611788948
21,atuona,-9.8,-139.0333,78.58,80,3,15.7,PF,1611788948
22,hualmay,-11.0964,-77.6139,73.18,75,87,8.41,PE,1611788948
23,saint-philippe,-21.3585,55.7679,77,69,0,5.75,RE,1611788948
24,chuy,-33.6971,-53.4616,70.56,85,43,10.13,UY,1611788949
25,dingle,10.9995,122.6711,75.65,90,100,7.05,PH,1611788949
26,ushuaia,-54.8,-68.3,39.2,93,40,19.57,AR,1611788949
27,saint george,37.1041,-113.5841,44.01,49,90,18.41,US,1611788659
28,hermanus,-34.4187,19.2345,55.99,89,42,8.75,ZA,1611788949
29,georgetown,5.4112,100.3354,78.8,94,20,4.59,MY,1611788778
30,illoqqortoormiut,,,,,,,,
31,cam ranh,11.9214,109.1591,73.4,78,40,11.5,VN,1611788949
32,port macquarie,-31.4333,152.9167,78.8,78,90,4.61,AU,1611788917
33,vardo,70.3705,31.1107,21.2,86,90,23.02,NO,1611788950
34,belushya guba,,,,,,,,
35,portland,45.5234,-122.6762,45,76,90,11.5,US,1611788889
36,amuntai,-2.4177,115.2494,72.84,96,91,0.96,ID,1611788950
37,tela,15.7833,-87.45,84.2,74,1,13.8,HN,1611788950
38,roebourne,-20.7833,117.1333,89.4,20,0,10.2,AU,1611788950
39,cape town,-33.9258,18.4232,64.99,68,0,17.27,ZA,1611788709
40,cherskiy,68.75,161.3,-23.42,85,100,4.52,RU,1611788951
41,qaanaaq,77.484,-69.3632,-15.59,64,0,9.73,GL,1611788951
42,chara,56.9064,118.2631,-31.11,76,100,0.65,RU,1611788951
43,polovinnoye,54.7914,65.9864,19.62,96,43,12.86,RU,1611788951
44,mar del plata,-38.0023,-57.5575,66.99,59,0,9.22,AR,1611788853
45,port elizabeth,-33.918,25.5701,64.4,77,0,5.75,ZA,1611788951
46,butaritari,3.0707,172.7902,80.2,81,82,13.24,KI,1611788951
47,nizhneyansk,,,,,,,,
48,coquimbo,-29.9533,-71.3436,64.4,72,0,13.8,CL,1611788952
49,huarmey,-10.0681,-78.1522,72.88,75,100,9.46,PE,1611788952
50,jamestown,42.097,-79.2353,23,93,90,5.97,US,1611788944
51,one hundred mile house,,,,,,,,
52,taolanaro,,,,,,,,
53,barentsburg,,,,,,,,
54,maniitsoq,65.4167,-52.9,22.06,75,0,7.16,GL,1611788952
55,kaitangata,-46.2817,169.8464,53.01,74,78,15.01,NZ,1611788952
56,woodward,36.4337,-99.3904,37.4,55,1,6.55,US,1611788953
57,zalegoshch,52.9008,36.8869,34.66,98,100,8.12,RU,1611788953
58,gamba,-2.65,10,75.29,92,100,4.38,GA,1611788666
59,cap malheureux,-19.9842,57.6142,77,81,2,1.99,MU,1611788933
60,ilulissat,69.2167,-51.1,6.8,51,0,3.44,GL,1611788953
61,vaini,-21.2,-175.2,75.2,94,90,11.5,TO,1611788953
62,udachnyy,66.4167,112.4,-40.29,79,7,0.98,RU,1611788953
63,bathsheba,13.2167,-59.5167,78.8,69,20,16.11,BB,1611788953
64,ashtabula,41.7001,-80.7665,28,68,90,6.91,US,1611788954
65,puerto escondido,15.85,-97.0667,86,70,40,5.75,MX,1611788954
66,tuktoyaktuk,69.4541,-133.0374,-27.4,75,20,5.75,CA,1611788954
67,fairbanks,64.8378,-147.7164,0,77,40,1.21,US,1611788954
68,margate,51.3813,1.3862,46.99,87,100,3.47,GB,1611788954
69,khatanga,71.9667,102.5,-30.41,80,0,7.14,RU,1611788955
70,williams lake,52.1415,-122.1445,26.6,80,90,9.22,CA,1611788955
71,luanda,-8.8368,13.2343,80.6,83,40,5.75,AO,1611788665
72,cervo,43.6702,-7.4101,59,81,75,3,ES,1611788955
73,coihaique,-45.5752,-72.0662,55.4,54,75,5.75,CL,1611788955
74,klaksvik,62.2266,-6.589,32,64,20,6.91,FO,1611788955
75,berezovyy,51.6667,135.7,-9.89,86,100,2.53,RU,1611788956
76,port hardy,50.6996,-127.4199,41,70,90,11.5,CA,1611788956
77,tevaitoa,-16.7833,-151.5,81.25,73,0,13.49,PF,1611788956
78,saskylakh,71.9167,114.0833,-41.6,80,93,1.5,RU,1611788956
79,tubruq,,,,,,,,
80,kodiak,57.79,-152.4072,33.8,75,90,4.61,US,1611788899
81,grand centre,,,,,,,,
82,bintulu,3.1667,113.0333,73.4,100,40,6.89,MY,1611788956
83,cabo san lucas,22.8909,-109.9124,72,60,20,5.75,MX,1611788957
84,tasiilaq,65.6145,-37.6368,21.2,45,90,18.41,GL,1611788957
85,magadi,12.9667,77.2333,59,100,20,3.44,IN,1611788957
86,sinjah,,,,,,,,
87,airai,-8.9266,125.4092,62.98,100,100,3.27,TL,1611788957
88,tautira,-17.7333,-149.15,87.8,58,40,4.61,PF,1611788957
89,carnarvon,-24.8667,113.6333,71.6,78,0,14.97,AU,1611788957
90,dingtao,35.0683,115.5625,31.48,62,2,11.83,CN,1611788957
91,ponta do sol,32.6667,-17.1,59,77,86,1.99,PT,1611788958
92,saint-pierre,-21.3393,55.4781,77,69,0,5.75,RE,1611788958
93,hilo,19.7297,-155.09,77,69,90,6.91,US,1611788932
94,gobabis,-22.45,18.9667,74.68,35,99,7.02,NA,1611788958
95,faanui,-16.4833,-151.75,81.19,74,1,13.65,PF,1611788958
96,nouadhibou,20.931,-17.0347,68,73,0,9.22,MR,1611788958
97,lebedinyy,58.5167,125.5167,-44.19,79,100,1.48,RU,1611788958
98,bluff,-46.6,168.3333,53.01,76,99,17,NZ,1611788936
99,avarua,-21.2078,-159.775,87.8,58,75,17.27,CK,1611788754
100,tutoia,-2.7619,-42.2744,79.92,81,99,10.09,BR,1611788959
101,mys shmidta,,,,,,,,
102,turukhansk,65.8167,87.9833,-32.67,78,100,6.08,RU,1611788959
103,puerto ayora,-0.7393,-90.3518,84.2,70,20,21.85,EC,1611788959
104,hauterive,46.0901,3.4459,48.2,81,75,4.61,FR,1611788959
105,kuche,,,,,,,,
106,san policarpo,12.1791,125.5072,79.88,83,100,13.87,PH,1611788960
107,naze,28.3667,129.4833,60.8,67,40,10.36,JP,1611788960
108,srednekolymsk,67.45,153.6833,-26.37,85,100,12.26,RU,1611788960
109,upington,-28.4478,21.2561,75.2,43,28,13.8,ZA,1611788960
110,karratha,-20.7377,116.8463,88.54,21,0,8.46,AU,1611788960
111,grand gaube,-20.0064,57.6608,77,81,2,1.01,MU,1611788960
112,simpang,-1.2667,104.0833,73.76,98,99,2.53,ID,1611788833
113,vangaindrano,-23.35,47.6,75.85,89,33,1.7,MG,1611788961
114,yuancheng,36.652,107.7896,19.53,76,0,6.02,CN,1611788961
115,nome,64.5011,-165.4064,17.6,62,90,10.36,US,1611788914
116,san ramon de la nueva oran,-23.1322,-64.326,75.58,73,38,6.31,AR,1611788894
117,ahipara,-35.1667,173.1667,72.19,66,65,6.46,NZ,1611788961
118,tiksi,71.6872,128.8694,-35.39,82,99,2.13,RU,1611788961
119,bengkulu,-3.8004,102.2655,75.33,89,100,5.73,ID,1611788961
120,hokitika,-42.7167,170.9667,58.06,63,42,20.51,NZ,1611788962
121,flinders,-34.5833,150.8552,71.01,72,87,3,AU,1611788962
122,clyde river,70.4692,-68.5914,-13,77,1,3.44,CA,1611788962
123,autun,46.95,4.3,48.2,87,90,3.44,FR,1611788962
124,north bend,43.4065,-124.2243,46.4,76,90,16.55,US,1611788707
125,nioro,13.35,-15.75,73.76,17,0,1.45,GM,1611788962
126,bambous virieux,-20.3428,57.7575,77,88,20,8.05,MU,1611788962
127,dunedin,-45.8742,170.5036,55,62,40,32.99,NZ,1611788963
128,kampot,10.6167,104.1833,73.4,94,20,2.3,KH,1611788963
129,ambodifototra,,,,,,,,
130,victoria point,-27.5833,153.3,82,67,5,5.99,AU,1611788963
131,severo-kurilsk,50.6789,156.125,28,96,100,19.26,RU,1611788963
132,bezhetsk,57.7851,36.6965,21.33,98,58,5.28,RU,1611788963
133,hohhot,40.8106,111.6522,5,39,40,8.95,CN,1611788963
134,upata,8.0086,-62.3989,79,83,100,5.01,VE,1611788963
135,shepsi,44.0361,39.1489,53.8,60,93,15.03,RU,1611788964
136,artyom,40.4723,50.333,46.4,93,40,18.41,AZ,1611788964
137,dubai,25.2582,55.3047,66,82,0,3.44,AE,1611788904
138,westport,41.1415,-73.3579,34,69,90,8.05,US,1611788964
139,trenggalek,-8.05,111.7167,75.11,83,100,3.38,ID,1611788964
140,san cristobal,7.7669,-72.225,82.4,61,40,6.91,VE,1611788774
141,aksha,50.2814,113.2867,-18.92,80,0,3.94,RU,1611788964
142,angoche,-16.2325,39.9086,78.01,87,91,6.76,MZ,1611788964
143,drezdenko,52.8383,15.8308,28.99,82,94,7.09,PL,1611788965
144,yellowknife,62.456,-114.3525,-9,70,75,3.44,CA,1611788947
145,manuk mangkaw,4.8,119.85,80.71,82,97,13.04,PH,1611788965
146,ambovombe,-25.1667,46.0833,75.69,86,3,7.67,MG,1611788832
147,mayo,38.8876,-76.5119,39.99,60,75,8.05,US,1611788965
148,boz,46.4071,4.9109,42.01,96,100,3,FR,1611788965
149,marathokambos,,,,,,,,
150,pacific grove,36.6177,-121.9166,51.01,87,90,6.91,US,1611788695
151,san jeronimo,-11.9472,-75.2829,56.98,66,85,5.84,PE,1611788966
152,alice springs,-23.7,133.8833,78.01,65,40,6.91,AU,1611788966
153,ancud,-41.8697,-73.8203,63,63,20,9.22,CL,1611788966
154,thompson,55.7435,-97.8558,-14.8,84,20,4.61,CA,1611788966
155,cayenne,4.9333,-52.3333,78.8,78,75,4.61,GF,1611788966
156,nanortalik,60.1432,-45.2371,24.55,94,100,7.78,GL,1611788964
157,codrington,-38.2667,141.9667,69.33,65,71,16.64,AU,1611788967
158,harnai,30.1005,67.9374,44.19,41,0,3.31,PK,1611788967
159,dikson,73.5069,80.5464,-20.58,86,100,9.75,RU,1611788967
160,puerto quijarro,-17.7833,-57.7667,80.83,72,100,3.15,BO,1611788967
161,dwarka,22.2394,68.9678,65.62,45,0,14.23,IN,1611788967
162,sumbawa,,,,,,,,
163,phonhong,18.5007,102.4166,64.29,73,81,1.05,LA,1611788967
164,rio grande,-32.035,-52.0986,72,95,100,9.24,BR,1611788752
165,bethel,41.3712,-73.414,30.2,69,90,5.75,US,1611788968
166,monte carmelo,-18.7247,-47.4986,70.02,87,100,4.85,BR,1611788968
167,deputatskiy,69.3,139.9,-21.75,89,100,2.91,RU,1611788968
168,radovitskiy,55.1282,39.7956,30.36,99,100,2.62,RU,1611788968
169,gorakhpur,29.45,75.6833,45.93,50,0,2.68,IN,1611788709
170,road town,18.4167,-64.6167,77,78,40,12.66,VG,1611788968
171,lorengau,-2.0226,147.2712,83.61,78,88,10.02,PG,1611788968
172,yulara,-25.2406,130.9889,77,65,98,12.66,AU,1611788969
173,wajima,37.4,136.9,41.11,69,100,20.96,JP,1611788969
174,grindavik,63.8424,-22.4338,32,64,0,21.85,IS,1611788969
175,lebu,-37.6167,-73.65,59.77,76,96,10.6,CL,1611788969
176,skibotn,69.3913,20.2679,26.6,50,0,13.8,NO,1611788970
177,pevek,69.7008,170.3133,-23.24,87,100,3.47,RU,1611788970
178,sangar,63.9242,127.4739,-53.19,72,100,0.89,RU,1611788864
179,terrace,54.5163,-128.6035,30.2,55,40,13.8,CA,1611788970
180,talas,38.6908,35.5538,41,65,75,12.66,TR,1611788970
181,sataua,,,,,,,,
182,ribeira grande,38.5167,-28.7,61.61,81,50,22.93,PT,1611788970
183,arifwala,30.294,73.0735,48.61,41,0,3.42,PK,1611788970
184,narwar,25.65,77.9,45.54,66,0,1.72,IN,1611788971
185,briancon,44.9,6.65,35.01,50,92,4.68,FR,1611788971
186,balkanabat,39.5108,54.3671,45.54,50,0,11.7,TM,1611788950
187,lethem,3.3803,-59.7968,82.26,61,76,12.8,GY,1611788971
188,mahebourg,-20.4081,57.7,73.4,88,20,8.05,MU,1611788965
189,kawalu,-7.3817,108.2082,71.74,86,99,1.72,ID,1611788971
190,hastings,50.8552,0.5729,46.99,90,100,8.77,GB,1611788971
191,saint-joseph,-21.3667,55.6167,77,69,0,5.75,RE,1611788971
192,bairiki,1.3292,172.9752,84.2,74,20,14.97,KI,1611788972
193,gannan,47.9147,123.5031,-12.37,80,14,8.7,CN,1611788972
194,sur,22.5667,59.5289,66.83,71,0,10.29,OM,1611788972
195,noumea,-22.2763,166.4572,84.2,65,75,14.97,NC,1611788972
196,nipawin,53.3668,-104.0009,-2.2,60,1,5.75,CA,1611788972
197,norman wells,65.282,-126.8329,-22,76,75,3.44,CA,1611788882
198,saldanha,-33.0117,17.9442,62.6,67,0,14.97,ZA,1611788972
199,makushino,55.2103,67.2442,16.56,97,40,9.44,RU,1611788973
200,neepawa,50.2289,-99.4664,-5.8,65,20,14.97,CA,1611788973
201,anderson,34.5334,-82.6499,57.2,82,90,9.22,US,1611788777
202,oranjestad,12.524,-70.027,78.8,78,40,17.27,AW,1611788973
203,leh,34.1667,77.5833,-0.6,58,0,1.61,IN,1611788973
204,yar-sale,66.8333,70.8333,-36.92,81,77,5.59,RU,1611788973
205,beidao,34.5686,105.8933,26.82,80,100,0.16,CN,1611788973
206,boundiali,9.5217,-6.4869,73.4,21,0,1.54,CI,1611788973
207,lasa,46.6166,10.7002,28.99,86,0,5.73,IT,1611788905
208,olafsvik,64.8945,-23.7142,30.04,87,85,15.19,IS,1611788974
209,victoria,22.2855,114.1577,63,84,0,9.33,HK,1611788704
210,esperance,-33.8667,121.9,64.4,88,75,10.36,AU,1611788974
211,alamosa,37.4695,-105.87,23,54,1,3.44,US,1611788974
212,lakes entrance,-37.8811,147.981,68,66,100,8.99,AU,1611788974
213,robertsport,6.7533,-11.3686,79.59,87,0,9.33,LR,1611788974
214,arraial do cabo,-22.9661,-42.0278,77,78,0,16.11,BR,1611788892
215,hay river,60.8156,-115.7999,-11.2,70,100,8.05,CA,1611788975
216,boende,-0.2167,20.8667,71.17,95,99,2.75,CD,1611788975
217,bunia,1.5667,30.25,69.84,42,52,2.19,CD,1611788975
218,burica,,,,,,,,
219,rungata,,,,,,,,
220,manacapuru,-3.2997,-60.6206,78.8,89,40,3.44,BR,1611788975
221,kununurra,-15.7667,128.7333,77,100,90,9.22,AU,1611788975
222,goderich,43.7501,-81.7165,21.2,79,100,9.22,CA,1611788975
223,san ramon,37.7799,-121.978,50,76,90,12.66,US,1611788976
224,huilong,31.8111,121.655,45,79,20,5.01,CN,1611788976
225,kehtna,58.9303,24.8781,28.99,99,100,5.48,EE,1611788976
226,cairns,-16.9167,145.7667,80.6,83,40,3.44,AU,1611788976
227,karkaralinsk,,,,,,,,
228,taltal,-25.4,-70.4833,70.38,67,22,7.09,CL,1611788976
229,bubaque,11.2833,-15.8333,77.68,69,0,14.05,GW,1611788976
230,torbay,47.6666,-52.7314,28,80,90,6.91,CA,1611788976
231,viedma,-40.8135,-62.9967,64,74,100,12.26,AR,1611788977
232,basco,20.4487,121.9702,73.09,75,7,15.55,PH,1611788977
233,nabire,-3.3667,135.4833,77.09,91,100,2.35,ID,1611788977
234,dawei,14.0833,98.2,72.18,80,0,3.74,MM,1611788977
235,labe,11.3182,-12.2833,64.35,27,0,1.23,GN,1611788977
236,amderma,,,,,,,,
237,carhuamayo,-10.9167,-76.0333,44.31,84,97,1.07,PE,1611788978
238,piltene,57.2243,21.6744,32,80,90,6.91,LV,1611788978
239,wasilla,61.5814,-149.4394,10.99,85,1,1.83,US,1611788887
240,hasaki,35.7333,140.8333,35.6,87,40,6.91,JP,1611788954
241,laguna,38.421,-121.4238,50,81,90,21.85,US,1611788978
242,eydhafushi,5.1033,73.0708,80.26,67,80,11.81,MV,1611788978
243,vestmanna,62.1564,-7.1664,32,64,20,6.91,FO,1611788978
244,hirara,24.8,125.2833,62.6,77,20,4.61,JP,1611788834
245,erenhot,43.6475,111.9767,-12.87,83,0,8.81,CN,1611788979
246,talcahuano,-36.7167,-73.1167,62.6,72,0,18.41,CL,1611788979
247,riyadh,24.6877,46.7219,62.6,27,0,9.22,SA,1611788979
248,ijaki,,,,,,,,
249,zhob,31.3411,69.4481,38.75,57,0,3,PK,1611788892
250,kandrian,-6.2167,149.55,83.86,77,100,8.99,PG,1611788979
251,hofn,64.2539,-15.2082,26.11,87,13,16.31,IS,1611788980
252,baykit,61.67,96.37,-25.4,80,100,6.17,RU,1611788980
253,malakal,9.5334,31.6605,81.46,20,3,7.36,SS,1611788980
254,takoradi,4.8845,-1.7554,78.55,87,5,6.89,GH,1611788980
255,athenree,-37.4667,175.9167,73,73,39,18.99,NZ,1611788980
256,mehamn,71.0357,27.8492,24.8,58,75,14.97,NO,1611788980
257,asau,46.4333,26.4,32,46,100,5.55,RO,1611788981
258,port alfred,-33.5906,26.891,62.01,91,59,1.99,ZA,1611788981
259,constitucion,-35.3333,-72.4167,60.91,68,74,20.76,CL,1611788715
260,cuamba,-14.8031,36.5372,70.27,94,100,1.19,MZ,1611788981
261,port augusta,-32.5,137.7667,80.01,61,70,3.44,AU,1611788890
262,timizart,36.8,4.2667,53.58,88,30,5.82,DZ,1611788685
263,harper,4.375,-7.7169,78.71,84,12,8.39,LR,1611788981
264,ostrovnoy,68.0531,39.5131,11.52,95,100,21.81,RU,1611788982
265,corrientes,-27.4806,-58.8341,78.01,85,2,1.99,AR,1611788982
266,uaua,-9.8414,-39.4817,77.02,62,88,13.38,BR,1611788894
267,wonthaggi,-38.6044,145.5913,70,68,71,20.54,AU,1611788982
268,port lincoln,-34.7333,135.8667,67.35,75,80,6.55,AU,1611788947
269,derzhavinsk,51.1,66.3167,21.22,98,100,8.25,KZ,1611788982
270,souillac,-20.5167,57.5167,73.4,88,20,8.05,MU,1611788982
271,kavieng,-2.5744,150.7967,84.45,73,88,10.6,PG,1611788982
272,lalmohan,22.3384,90.7419,61.45,51,6,11.32,BD,1611788983
273,walvis bay,-22.9575,14.5053,68,82,0,6.91,NA,1611788983
274,tumannyy,,,,,,,,
275,novyy urengoy,66.0833,76.6333,-43.76,81,27,3.6,RU,1611788983
276,olinda,-8.0089,-34.8553,78.8,69,75,9.22,BR,1611788983
277,pedasi,7.5333,-80.0333,81.75,77,84,13.35,PA,1611788983
278,haguenau,48.8156,7.7905,39,93,90,5.75,FR,1611788983
279,san patricio,28.017,-97.5169,69.8,23,75,13.8,US,1611788984
280,sisimiut,66.9395,-53.6735,8.1,78,0,10.94,GL,1611788984
281,elesbao veloso,-6.2019,-42.1403,80.55,59,100,3.53,BR,1611788855
282,pervomayskoye,43.919,46.7102,43.45,88,98,11.21,RU,1611788984
283,tambura,5.6,27.4667,78.44,34,42,4.79,SS,1611788984
284,sidlaghatta,13.3881,77.8628,59,100,20,3.44,IN,1611788985
285,panaba,21.2833,-88.2667,82.27,69,13,7.92,MX,1611788985
286,guerrero negro,27.9769,-114.0611,63.46,39,100,10.71,MX,1611788985
287,dhidhdhoo,6.8833,73.1,80.96,67,65,10.02,MV,1611788818
288,lumby,50.2498,-118.969,33.01,93,100,3.27,CA,1611788985
289,gat,31.61,34.7642,59,77,67,7,IL,1611788982
290,touros,-5.1989,-35.4608,78.8,78,20,8.05,BR,1611788985
291,upernavik,72.7868,-56.1549,-2.92,91,99,4,GL,1611788985
292,bandarbeyla,9.4942,50.8122,73.31,75,40,16.98,SO,1611788986
293,grand river south east,,,,,,,,
294,palmeira,-25.4294,-50.0064,67.48,97,100,4.99,BR,1611788986
295,mahajanga,-15.7167,46.3167,78.8,89,20,2.3,MG,1611788986
296,chippewa falls,44.9369,-91.3929,12.99,40,1,4.61,US,1611788701
297,palm beach gardens,26.8234,-80.1386,80.01,61,1,3.44,US,1611788986
298,nelson bay,-32.7167,152.15,70,100,90,21.85,AU,1611788986
299,half moon bay,37.4636,-122.4286,51.01,87,90,8.05,US,1611788986
300,gainesville,29.6516,-82.3248,69.8,88,90,10.36,US,1611788795
301,east london,-33.0153,27.9116,69.35,81,78,16.17,ZA,1611788987
302,soeng sang,14.4264,102.4606,73.99,88,13,2.06,TH,1611788987
303,katsuura,35.1333,140.3,46,65,75,14.97,JP,1611788987
304,sandwick,60,-1.25,33.8,86,0,6.91,GB,1611788987
305,praia da vitoria,38.7333,-27.0667,60.8,100,40,23.85,PT,1611788987
306,pisco,-13.7,-76.2167,75.2,60,0,10.36,PE,1611788987
307,adrar,20.5022,-10.0711,67.01,23,0,9.62,MR,1611788947
308,mlonggo,-6.5333,110.7,75.2,94,40,2.3,ID,1611788988
309,palabuhanratu,,,,,,,,
310,vila franca do campo,37.7167,-25.4333,63,94,75,18.41,PT,1611788896
311,benjamin aceval,-24.9667,-57.5667,82.4,78,40,2.3,PY,1611788988
312,victor harbor,-35.5667,138.6167,71.01,67,89,7.72,AU,1611788988
313,salalah,17.0151,54.0924,68,73,0,2.3,OM,1611788988
314,ankazoabo,-22.2833,44.5167,74.59,84,12,2.71,MG,1611788729
315,eyl,7.9803,49.8164,71.28,76,38,17.31,SO,1611788989
316,fare,-16.7,-151.0167,81.14,72,6,12.8,PF,1611788989
317,nemuro,43.3236,145.575,22.35,87,0,12.62,JP,1611788989
318,fort nelson,58.8053,-122.7002,-7.6,71,40,6.91,CA,1611788989
319,stornoway,58.2093,-6.3865,37.4,70,20,12.66,GB,1611788989
320,necochea,-38.5473,-58.7368,66.99,57,56,14.67,AR,1611788990
321,san quintin,30.4833,-115.95,58.08,49,80,9.75,MX,1611788990
322,port pirie,-33.1833,138.0167,78.8,61,53,3.44,AU,1611788990
323,sao filipe,14.8961,-24.4956,74.03,68,0,5.1,CV,1611788990
324,pangnirtung,66.1451,-65.7125,-4,77,1,4.61,CA,1611788990
325,hargeysa,9.56,44.065,56.89,84,11,8.19,SO,1611788990
326,sultanpur,26.2667,82.0667,46.02,69,0,2.68,IN,1611788990
327,provideniya,64.3833,-173.3,8.6,92,90,20.13,RU,1611788991
328,baker city,44.7749,-117.8344,39.2,70,90,8.05,US,1611788991
329,lompoc,34.6391,-120.4579,53.6,87,90,14.97,US,1611788991
330,ust-kuyga,70.0167,135.6,-35.5,81,98,2.3,RU,1611788991
331,namatanai,-3.6667,152.4333,84.63,70,100,9.33,PG,1611788991
332,comodoro rivadavia,-45.8667,-67.5,62.6,48,40,14.97,AR,1611788901
333,mount gambier,-37.8333,140.7667,64.4,72,35,12.66,AU,1611788697
334,razole,16.4833,81.8333,66.97,95,12,2.75,IN,1611788991
335,sinnamary,5.3833,-52.95,76.66,80,50,10.98,GF,1611788992
336,bajil,15.0584,43.2851,71.94,76,0,0.94,YE,1611788992
337,jiaohe,43.7286,127.3447,6.44,93,100,3.49,CN,1611788992
338,ligayan,4.6533,119.4706,80.85,81,100,14.83,PH,1611788992
339,ixtapa,20.7,-105.2,71.6,78,1,9.22,MX,1611788992
340,chifeng,42.2683,118.9636,-5.89,80,0,13.35,CN,1611788993
341,cap-haitien,19.7578,-72.2042,75.9,77,3,6.17,HT,1611788993
342,hayden,47.766,-116.7866,37,80,75,11.5,US,1611788771
343,sorland,67.667,12.6934,32.74,89,3,15.88,NO,1611788993
344,strezhevoy,60.7333,77.5889,-25.6,68,0,6.71,RU,1611788993
345,san isidro,-12.1167,-77.05,75.99,64,0,9.22,PE,1611788993
346,padang,-0.9492,100.3543,71.6,94,40,3.44,ID,1611788993
347,daitari,21.1,85.75,56.57,70,0,2.39,IN,1611788994
348,meulaboh,4.1363,96.1285,75.4,84,100,5.28,ID,1611788994
349,rio gallegos,-51.6226,-69.2181,51.8,35,0,25.32,AR,1611788994
350,krasnoselkup,65.7,82.4667,-39.23,82,13,3.71,RU,1611788994
351,los llanos de aridane,28.6585,-17.9182,64,88,0,8.05,ES,1611788994
352,urumqi,43.801,87.6005,1.4,85,75,2.24,CN,1611788994
353,fayetteville,35.0527,-78.8784,51.8,82,90,3.44,US,1611788760
354,nizhnyaya maktama,54.8636,52.4281,21.43,94,100,18.41,RU,1611788994
355,tuatapere,-46.1333,167.6833,53.01,76,100,17,NZ,1611788995
356,mahuva,21.0914,71.7622,60.26,34,0,13.35,IN,1611788995
357,litovko,49.2361,135.1742,-10.26,87,0,4.09,RU,1611788995
358,kismayo,-0.3582,42.5454,77.04,82,54,13.85,SO,1611788995
359,ridgecrest,35.6225,-117.6709,44.6,57,90,4.61,US,1611788995
360,tsihombe,,,,,,,,
361,sentyabrskiy,,,,,,,,
362,tabuk,17.4189,121.4443,69.3,87,93,3.13,PH,1611788996
363,sorong,-0.8833,131.25,81.84,80,100,11.01,ID,1611788996
364,abu dhabi,24.4667,54.3667,64.4,88,0,8.66,AE,1611788996
365,cidreira,-30.1811,-50.2056,73.94,92,100,7.4,BR,1611788996
366,araouane,18.9048,-3.5265,69.3,21,0,10.63,ML,1611788996
367,atlantis,-33.5667,18.4834,64,75,0,9.98,ZA,1611788996
368,mangrol,21.1167,70.1167,61.61,33,4,13.2,IN,1611788997
369,iqaluit,63.7506,-68.5145,-5.01,71,1,23.02,CA,1611788997
370,lima,-12.0432,-77.0282,75.99,64,0,9.22,PE,1611788997
371,yurty,56.0498,97.6348,4.06,92,100,11.61,RU,1611788997
372,yenangyaung,20.4667,94.8833,62.65,59,5,2.98,MM,1611788997
373,panguna,-6.3164,155.4848,80.26,75,100,2.44,PG,1611788997
374,sayyan,15.1718,44.3244,42.6,57,0,3.09,YE,1611788997
375,lagoa,39.05,-27.9833,60.49,83,58,28.03,PT,1611788998
376,fortuna,40.5982,-124.1573,48,87,75,19.57,US,1611788998
377,caravelas,-17.7125,-39.2481,76.06,81,100,5.08,BR,1611788998
378,chicama,-7.8447,-79.1469,69.8,88,75,13.8,PE,1611788998
379,nara,34.6851,135.8049,43,87,75,2.3,JP,1611788998
380,pochutla,15.7432,-96.4661,86,58,40,9.22,MX,1611788981
381,griffith,41.5284,-87.4237,27,86,90,8.05,US,1611788998
382,komsomolets,53.7453,62.0708,19.67,95,41,12.91,KZ,1611788998
383,talnakh,69.4865,88.3972,-26.77,82,70,3.89,RU,1611788850
384,bilibino,68.0546,166.4372,-11.24,83,100,7,RU,1611788999
385,kudahuvadhoo,2.6708,72.8944,79.54,73,60,17.18,MV,1611788999
386,palpa,-14.5336,-75.1856,82.65,44,15,7.65,PE,1611788999
387,port-cartier,50.0334,-66.8654,23,58,67,8.05,CA,1611788999
388,qarayeri,40.7886,46.3066,37.4,70,75,6.91,AZ,1611788999
389,tessalit,20.1986,1.0114,65.39,22,0,8.23,ML,1611788999
390,sitka,57.0531,-135.33,30.2,37,1,8.05,US,1611788999
391,villa del rosario,7.8339,-72.4742,82.4,61,40,6.91,CO,1611789000
392,richards bay,-28.783,32.0377,73.4,95,100,9.4,ZA,1611789000
393,glendive,47.1053,-104.7125,21.99,73,1,10.36,US,1611789000
394,totness,5.8833,-56.3167,76.68,81,54,11.61,SR,1611789000
395,khanpur,28.6453,70.6567,45.14,56,0,2.68,PK,1611789000
396,jumla,29.2747,82.1838,32.23,40,0,4.92,NP,1611788980
397,paamiut,61.994,-49.6678,30.18,83,79,6.11,GL,1611789001
398,bolekhiv,49.0661,23.8643,28,85,99,3,UA,1611789001
399,lavrentiya,65.5833,-171,-0.2,88,98,17.13,RU,1611789001
400,ewa beach,21.3156,-158.0072,82.4,51,20,17.27,US,1611789001
401,antofagasta,-23.65,-70.4,68,77,75,14.97,CL,1611788818
402,lensk,60.7253,114.9278,-42.47,77,80,1.39,RU,1611789001
403,conceicao do araguaia,-8.2578,-49.2647,76.1,90,99,3.33,BR,1611789001
404,brigantine,39.4101,-74.3646,35.6,60,90,9.22,US,1611789002
405,axim,4.8699,-2.2405,78.26,88,24,7.9,GH,1611789003
406,sao joao da barra,-21.6403,-41.0511,77.97,81,0,17.18,BR,1611789004
407,aljezur,37.3191,-8.8033,55.99,100,94,3,PT,1611789005
408,kyzyl-suu,42.3414,78.0056,19.53,64,0,7.02,KG,1611789005
409,kruisfontein,-34.0033,24.7314,64,87,88,3.15,ZA,1611789005
410,samusu,,,,,,,,
411,loubomo,-4.1997,12.6739,72.5,93,100,0.54,CG,1611789006
412,meadow lake,34.8014,-106.5436,39.99,38,20,1.59,US,1611789006
413,makakilo city,21.3469,-158.0858,82.4,51,20,17.27,US,1611788960
414,bensonville,6.4461,-10.6125,78.8,94,20,3.94,LR,1611789007
415,puerto del rosario,28.5004,-13.8627,64.4,68,0,6.91,ES,1611789007
416,sampit,-2.5333,112.95,72.95,96,100,5.91,ID,1611789008
417,broken hill,-31.95,141.4333,73.4,33,91,12.66,AU,1611789008
418,kysyl-syr,63.8986,122.7617,-45.92,77,100,3.02,RU,1611789008
419,manaure,11.7751,-72.4445,81.75,62,100,18.48,CO,1611789008
420,shizuishan,39.2333,106.7694,15.51,71,0,5.5,CN,1611789008
421,porbandar,21.6422,69.6093,60.89,40,0,10.27,IN,1611789008
422,mapimi,25.8167,-103.85,66.2,15,75,4.76,MX,1611789009
423,tripoli,32.8752,13.1875,55.58,56,19,16.89,LY,1611789009
424,skole,49.0372,23.5135,28,85,100,3,UA,1611789009
425,ponta delgada,37.7333,-25.6667,63,94,75,18.41,PT,1611789009
426,canico,32.6333,-16.85,62.6,94,75,4.61,PT,1611789009
427,la trinidad,16.455,120.5875,59.43,100,57,3.27,PH,1611789009
428,gidam,18.9833,81.4,62.37,84,46,0.31,IN,1611789010
429,vilhena,-12.7406,-60.1458,77,83,40,5.75,BR,1611789009
430,khonuu,,,,,,,,
431,tabiauea,,,,,,,,
432,staryy nadym,65.6118,72.6842,-36.22,81,94,4.14,RU,1611789010
433,mvomero,-6.25,38.6667,74.64,93,40,3.53,TZ,1611789010
434,bozeman,45.6796,-111.0386,37.4,41,75,10.36,US,1611789010
435,antalaha,-14.9003,50.2788,75.29,86,3,3.38,MG,1611789011
436,urengoy,65.9667,78.3667,-42.88,80,17,3.67,RU,1611789011
437,luang prabang,19.8856,102.1347,60.96,71,12,1.45,LA,1611789011
438,hobyo,5.3505,48.5268,75.67,77,10,18.72,SO,1611789011
439,esmeralda,21.8525,-78.1169,80.6,74,40,11.5,CU,1611788896
440,bundi,25.4417,75.6417,48.61,51,0,3.85,IN,1611789011
441,adelaide,-34.9333,138.6,80.01,27,0,9.22,AU,1611788951
442,estelle,29.8458,-90.1067,64.99,72,75,12.66,US,1611789012
443,tungor,53.3808,142.9564,9.72,96,100,14.67,RU,1611789012
444,hermosillo,29.0667,-110.9667,72,26,98,1.99,MX,1611788911
445,ludvika,60.1496,15.1878,18,92,90,4.61,SE,1611789012
446,venezuela,8,-66,86.56,40,97,12.68,VE,1611788760
447,barranca,-10.75,-77.7667,72,79,90,6.15,PE,1611789012
448,mahibadhoo,3.7833,72.9667,80.06,65,21,12.55,MV,1611789012
449,glamoc,44.0458,16.8486,13.6,85,13,1.63,BA,1611789013
450,mersing,2.4312,103.8405,78.8,89,100,10.36,MY,1611789013
451,yeppoon,-23.1333,150.7333,80.6,65,75,12.66,AU,1611789013
452,sept-iles,50.2001,-66.3821,23,58,15,8.05,CA,1611789013
453,ust-kulom,61.6864,53.6902,29.75,97,100,9.51,RU,1611789013
454,homer,59.6425,-151.5483,28.99,68,90,9.22,US,1611789013
455,turinskaya sloboda,57.6232,64.3858,20.12,96,91,9.55,RU,1611789013
456,emerald,-23.5333,148.1667,82.4,61,40,12.66,AU,1611789014
457,ararangua,-28.9347,-49.4858,74.66,90,100,5.12,BR,1611789014
458,nhulunbuy,-12.2333,136.7667,82.4,78,98,12.66,AU,1611788986
459,coxim,-18.5067,-54.76,76.53,84,98,5.73,BR,1611788975
460,san marcos,33.1434,-117.1661,61,51,1,8.05,US,1611789014
461,zlatoustovsk,,,,,,,,
462,kainantu,-6.2887,145.8655,62.73,94,100,2.46,PG,1611789014
463,harlingen,26.1906,-97.6961,73,32,1,18.41,US,1611789015
464,ossora,59.2353,163.0719,-0.56,85,96,6.91,RU,1611789015
465,damietta,31.4165,31.8133,59,77,0,11.5,EG,1611789015
466,gornopravdinsk,60.05,69.9,-0.63,92,100,7.14,RU,1611789015
467,ozernovskiy,51.5,156.5167,24.85,90,100,6.78,RU,1611789015
468,lubango,-14.9172,13.4925,58.84,57,84,2.77,AO,1611789015
469,san carlos de bariloche,-41.1456,-71.3082,53.6,66,40,31.07,AR,1611789012
470,pribelskiy,,,,,,,,
471,itumbiara,-18.4192,-49.2153,75.65,77,96,4.85,BR,1611789016
472,concepcion del oro,24.6333,-101.4167,66.11,19,100,2.51,MX,1611789016
473,jieshi,22.8134,115.8257,62.01,81,5,1.01,CN,1611789016
474,north battleford,52.7834,-108.2847,-2.2,71,1,17.27,CA,1611789016
475,eureka,40.8021,-124.1637,48,81,100,1.01,US,1611788832
476,mana,5.6592,-53.7767,76.35,83,85,10.29,GF,1611789016
477,corinto,37.9407,22.9573,45,26,51,3,GR,1611789016
478,kannur,11.8675,75.3576,72.52,79,72,6.4,IN,1611789017
479,tobol,52.6844,62.5794,14.52,97,32,10.85,KZ,1611789017
480,pirgos,35.1167,25.7178,48,51,1,13.24,GR,1611789017
481,aksu,41.1231,80.2644,15.58,88,0,1.39,CN,1611789017
482,miles city,46.4083,-105.8406,30.2,51,1,11.5,US,1611789017
483,clarksburg,39.2807,-80.3445,30.99,69,90,4.61,US,1611789017
484,mullaitivu,,,,,,,,
485,aflu,,,,,,,,
486,abaete,-19.16,-45.4458,72.09,63,16,3.36,BR,1611789018
487,mayumba,-3.432,10.6554,78.24,85,100,4,GA,1611789018
488,zhezkazgan,47.8043,67.7144,10.94,97,49,6.78,KZ,1611789018
489,apatou,5.155,-54.3472,72.91,87,80,3.49,GF,1611789018
490,queanbeyan,-35.35,149.2333,63,72,90,10.36,AU,1611789018
491,shimoda,34.6667,138.95,39.99,78,95,5.01,JP,1611789018
492,saleaula,,,,,,,,
493,altamont,42.2068,-121.7372,39.99,56,20,32.21,US,1611788736
494,prince rupert,54.3161,-130.3201,35.6,69,1,2.3,CA,1611789019
495,quatre cocos,-20.2078,57.7625,77,88,20,8.05,MU,1611789019
496,flin flon,54.7682,-101.865,-2.2,78,40,2.3,CA,1611788976
497,ulladulla,-35.35,150.4667,68,77,75,8.05,AU,1611789019
498,ormara,25.2088,64.6357,64.83,56,0,4.12,PK,1611789019
499,mackay,-21.15,149.2,82.99,78,75,14.97,AU,1611789019
500,morant bay,17.8815,-76.4093,82.4,61,40,32.21,JM,1611789020
501,inuvik,68.3499,-133.7218,-13,84,99,2.3,CA,1611789020
502,samarinda,-0.5,117.15,72.9,97,100,2.73,ID,1611788944
503,mtimbira,-8.7833,36.35,72.64,87,36,1.48,TZ,1611789020
504,neiafu,-18.65,-173.9833,75.2,94,90,13.8,TO,1611789020
505,kidal,18.4411,1.4078,67.37,20,0,11.05,ML,1611789020
506,labuhan,-6.8844,112.2051,77.56,86,100,9.75,ID,1611789020
507,grand forks,47.9417,-97.4337,1,78,90,4.61,US,1611789021
508,rio branco,-9.9747,-67.81,77,94,0,2.3,BR,1611789021
509,longyearbyen,78.2186,15.6401,6.8,66,20,16.11,SJ,1611789021
510,togur,58.3631,82.8265,-28.57,83,83,4.54,RU,1611789021
511,aguimes,27.9054,-15.4461,68,88,0,9.22,ES,1611788729
512,zhangye,38.9342,100.4517,19.42,68,0,6.22,CN,1611789021
513,batavia,41.85,-88.3126,24.01,63,1,12.66,US,1611788931
514,lingao,19.9103,109.6859,63.97,94,1,9.95,CN,1611789022
515,marsh harbour,26.5412,-77.0636,75.72,79,21,10.45,BS,1611789022
516,bundaberg,-24.85,152.35,82.4,57,75,18.41,AU,1611789022
517,tazovskiy,67.4667,78.7,-37.79,82,2,3.4,RU,1611789022
518,aybak,,,,,,,,
519,warqla,,,,,,,,
520,shawnee,39.05,-95.7669,26.6,74,90,4.61,US,1611789023
521,northam,51.0333,-4.2167,52,98,100,4,GB,1611788905
522,kingaroy,-26.5333,151.8333,73.99,83,40,10.36,AU,1611789023
523,pozo colorado,-23.4923,-58.7972,80.1,77,36,6.29,PY,1611789023
524,namibe,-15.1961,12.1522,73.9,78,92,8.59,AO,1611789023
525,vlasikha,53.2972,83.5742,19.4,86,75,11.18,RU,1611789023
526,shangzhi,45.2167,127.9667,-1.03,91,100,2.3,CN,1611789024
527,cumaribo,,,,,,,,
528,mormugao,15.4,73.8,71.6,88,0,3.44,IN,1611789024
529,kloulklubed,7.0419,134.2556,75.2,100,75,3.44,PW,1611789024
530,jatai,-17.8814,-51.7144,71.13,86,100,3.89,BR,1611789024
531,egvekinot,66.3167,-179.1667,-13.4,87,98,22.24,RU,1611789024
532,eenhana,-17.4667,16.3333,78.8,65,100,1.14,NA,1611789024
533,port hueneme,34.1478,-119.1951,57.2,67,90,12.66,US,1611789025
534,viligili,,,,,,,,
535,kayes,14,-11,74.41,14,0,7.9,ML,1611789025
536,cabatuan,10.8794,122.486,75.74,87,100,10.02,PH,1611789025
537,parnamirim,-5.9156,-35.2628,80.6,78,20,12.66,BR,1611789025
538,koumra,8.9126,17.5539,75.88,20,46,4.94,TD,1611789025
539,akalkot,17.5333,76.2167,66.9,61,9,8.23,IN,1611788831
540,qesarya,32.5189,34.9046,59,71,75,3.44,IL,1611789025
541,juruti,-2.1522,-56.0922,78.93,79,87,2.93,BR,1611789026
542,malaya serdoba,52.4661,44.9512,26.1,97,100,14.34,RU,1611789026
543,rawannawi,,,,,,,,
544,leshukonskoye,64.8989,45.7622,25.32,99,100,2.82,RU,1611789026
545,longlac,,,,,,,,
546,alofi,-19.0595,-169.9187,80.6,83,75,9.22,NU,1611789026
547,samarai,-10.6167,150.6667,79.74,86,99,7.74,PG,1611789026
548,bilma,18.6853,12.9164,64.53,26,0,14.47,NE,1611789027
549,sinkat,,,,,,,,
550,nizhniy kuranakh,58.8353,125.4869,-38.31,79,100,2.24,RU,1611789027
551,loandjili,-4.7561,11.8578,79.43,81,100,2.01,CG,1611788762
552,port moresby,-9.4431,147.1797,77,94,40,8.05,PG,1611789027
553,skelleftea,64.7507,20.9528,19.4,86,90,6.91,SE,1611789027
554,shambu,9.5667,37.1,54.95,45,0,0.76,ET,1611789028
555,nantucket,41.2835,-70.0995,37,100,90,12.66,US,1611789028
556,banjar,-8.19,114.9675,80.6,83,75,11.5,ID,1611789028
557,la ronge,55.1001,-105.2842,-0.4,71,45,8.05,CA,1611789028
558,haysville,37.5645,-97.3523,27,68,40,6.91,US,1611789028
559,russell,32.3502,-85.1999,60.8,72,90,8.05,US,1611789028
560,omboue,-1.5746,9.2618,74.89,90,100,3.76,GA,1611789028
561,ribeira brava,32.65,-17.0667,59,88,86,6.71,PT,1611789029
562,tarata,-17.6167,-66.0167,75.2,35,40,11.5,BO,1611789029
563,vila velha,-20.3297,-40.2925,78.8,73,0,2.3,BR,1611788966
564,kologriv,58.8275,44.3178,23.56,97,97,5.68,RU,1611789029
565,falealupo,,,,,,,,
566,zhanatas,,,,,,,,
567,leningradskiy,69.3833,178.4167,-16.69,87,100,3.69,RU,1611789029
568,gornyye klyuchi,45.25,133.5,-6.02,89,48,2.82,RU,1611789029
569,hilton head island,32.2163,-80.7526,57,94,90,3.44,US,1611789030
570,attawapiskat,,,,,,,,
571,cartagena,10.3997,-75.5144,82.4,69,0,11.5,CO,1611789030
572,tonantins,-2.8731,-67.8022,77.22,93,100,1.79,BR,1611789030
573,maloshuyka,,,,,,,,
574,kirkuk,35.4681,44.3922,56.35,38,77,8.77,IQ,1611789030
575,suntar,62.1444,117.6319,-47.2,77,89,0.96,RU,1611789030
576,youkounkoun,12.5333,-13.1333,76.39,15,0,4.25,GN,1611789031
577,paris,48.8534,2.3488,48,100,90,5.75,FR,1611788760
578,doha,25.2867,51.5333,59,72,0,1.14,QA,1611788732
579,dhandhuka,22.3667,71.9833,54.99,37,0,11.14,IN,1611788829
580,smithers,54.7804,-127.1743,19.4,68,90,9.22,CA,1611789031
581,haapiti,-17.5667,-149.8667,87.8,58,40,4.61,PF,1611789031
582,arman,59.7,150.1667,-15.34,79,0,9.98,RU,1611789031
583,byron bay,-28.65,153.6167,80.6,65,40,11.5,AU,1611789031
584,kundiawa,-6.0167,144.9667,67.64,74,100,2.13,PG,1611789032
585,gafanha da nazare,40.6362,-8.7134,57,94,100,0.72,PT,1611789032
586,vanimo,-2.6741,141.3028,79.84,80,100,5.84,PG,1611789032
587,tabialan,,,,,,,,
588,vila,42.0304,-8.1588,53.01,96,100,6.26,PT,1611789032
589,manati,18.4275,-66.4921,79,81,0,1.99,PR,1611789032
590,snina,48.9886,22.151,25,87,53,3.33,SK,1611789032
591,buchanan,5.8808,-10.0467,78.8,94,20,7.05,LR,1611788861
592,solovetskiy,,,,,,,,
593,kahului,20.8947,-156.47,80.6,54,40,28.77,US,1611789033
594,natchitoches,31.7668,-93.1335,59,44,1,12.66,US,1611789033
595,chunskiy,56.0815,99.6342,-2.94,92,100,2.28,RU,1611789033
596,tiznit,29.5833,-9.5,64.22,39,0,2.55,MA,1611789033
597,emirdag,39.0197,31.15,29.61,91,58,15.23,TR,1611789033
598,bacuit,,,,,,,,
599,kaabong,3.4836,34.1492,67.71,48,6,9.31,UG,1611789034
600,arlit,18.7369,7.3853,63.84,25,0,7.09,NE,1611789034
601,christchurch,-43.5333,172.6333,62.6,72,90,13.8,NZ,1611788961
602,vastervik,,,,,,,,
603,peniche,39.3558,-9.3811,57.99,95,100,8.99,PT,1611789034
604,staicele,57.8364,24.75,30.99,97,99,1.99,LV,1611789034
605,diego de almagro,-26.3667,-70.05,75.47,27,2,7.92,CL,1611789034
606,alta floresta,-9.8756,-56.0861,84.2,74,40,2.3,BR,1611789034
607,lobito,-12.3481,13.5456,76.24,80,100,6.44,AO,1611789035
608,kharitonovo,61.4009,47.4978,28.63,97,96,9.19,RU,1611789035
609,taoudenni,22.6783,-3.9836,69.85,31,0,16.89,ML,1611789035
610,dzaoudzi,-12.7887,45.2699,77,94,0,3.44,YT,1611789035
611,luganville,-15.5333,167.1667,76.59,87,100,3.06,VU,1611789035
612,krasnoarmeyskiy,47.0114,42.2072,37.42,90,100,10.89,RU,1611789035
613,emba,48.8264,58.1442,14.04,92,0,11.86,KZ,1611789035
614,kazalinsk,,,,,,,,
615,barcelona,41.3888,2.159,53.01,76,20,3.44,ES,1611788977
616,beringovskiy,63.05,179.3167,16.74,96,100,27.22,RU,1611789036
617,bac lieu,9.285,105.7244,75.45,82,85,14.92,VN,1611788899
618,fuerte olimpo,-21.0415,-57.8738,78.71,77,26,6.93,PY,1611789036
619,tual,-5.6667,132.75,84.13,76,100,16.73,ID,1611789036
620,behshahr,36.6923,53.5526,51.4,43,0,5.7,IR,1611789036
621,le mars,42.7942,-96.1656,15.8,73,1,5.75,US,1611789037
