,City,Lat,Lng,Max Temp,Humidity,Cloudiness,Wind Speed,Country,Date
0,ushuaia,-54.8,-68.3,39.2,81,75,4.61,AR,1611709682
1,sorland,67.667,12.6934,36.32,80,100,14.2,NO,1611709931
2,codrington,-38.2667,141.9667,60.66,63,100,19.01,AU,1611709957
3,tiksi,71.6872,128.8694,-36.74,83,100,4.09,RU,1611709957
4,murgab,37.4966,61.9714,28.4,80,0,8.12,TM,1611709725
5,nantucket,41.2835,-70.0995,33.01,100,90,5.75,US,1611709706
6,atuona,-9.8,-139.0333,78.62,78,0,15.88,PF,1611709957
7,busselton,-33.65,115.3333,66.99,71,0,5.99,AU,1611709957
8,aksarka,66.5606,67.7975,-32.8,81,0,8.43,RU,1611709958
9,punta arenas,-53.15,-70.9167,44.6,57,40,24.16,CL,1611709958
10,barrow,71.2906,-156.7887,-16.6,69,40,9.22,US,1611709958
11,yinchuan,38.4681,106.2731,26.6,72,97,4.81,CN,1611709853
12,nizhneyansk,,,,,,,,
13,praia da vitoria,38.7333,-27.0667,64,92,100,18.99,PT,1611709726
14,hobart,-42.8794,147.3294,59,41,75,14.97,AU,1611709751
15,port macquarie,-31.4333,152.9167,87.01,62,0,4,AU,1611709776
16,albany,42.6001,-73.9662,28.99,77,100,10.69,US,1611709958
17,dikson,73.5069,80.5464,-24.34,85,100,7.63,RU,1611709773
18,broken hill,-31.95,141.4333,69.8,64,97,14.97,AU,1611709959
19,isla mujeres,21.2311,-86.731,80.01,84,1,13,MX,1611709959
20,najran,17.4924,44.1277,51.8,50,0,0.94,SA,1611709855
21,kodiak,57.79,-152.4072,37.4,48,1,17.27,US,1611709710
22,plouzane,48.3833,-4.6167,50,100,90,5.75,FR,1611709959
23,khatanga,71.9667,102.5,-25.6,82,47,8.95,RU,1611709959
24,carora,10.1755,-70.0827,72.5,74,0,11.68,VE,1611709959
25,mattru,7.6244,-11.8332,74.14,91,0,0.78,SL,1611709960
26,avarua,-21.2078,-159.775,86,66,20,16.11,CK,1611709699
27,taolanaro,,,,,,,,
28,turtas,58.9417,69.1325,26.76,98,100,10.13,RU,1611709960
29,samarai,-10.6167,150.6667,85.53,65,74,5.97,PG,1611709960
30,cape town,-33.9258,18.4232,68,82,0,16.11,ZA,1611709890
31,belushya guba,,,,,,,,
32,bredasdorp,-34.5322,20.0403,62.6,82,12,1.14,ZA,1611709960
33,mahebourg,-20.4081,57.7,73.4,83,20,6.91,MU,1611709759
34,yulara,-25.2406,130.9889,77,78,75,12.66,AU,1611709961
35,puerto ayora,-0.7393,-90.3518,77,94,28,3,EC,1611709961
36,bayanday,53.0661,105.5139,-27.94,84,98,3.85,RU,1611709961
37,pevek,69.7008,170.3133,-29.6,85,17,1.92,RU,1611709707
38,ponta do sol,32.6667,-17.1,64.4,77,40,6.91,PT,1611709665
39,lasa,46.6166,10.7002,19.99,52,28,6.69,IT,1611709909
40,nanortalik,60.1432,-45.2371,15.13,83,0,6.55,GL,1611709961
41,karla,59.3723,24.9275,35.01,100,90,5.75,EE,1611709962
42,hermanus,-34.4187,19.2345,62.01,93,69,3.33,ZA,1611709962
43,kloulklubed,7.0419,134.2556,82.13,72,100,15.19,PW,1611709962
44,pisco,-13.7,-76.2167,68,89,62,13,PE,1611709865
45,isangel,-19.55,169.2667,86,70,75,14.97,VU,1611709962
46,cap malheureux,-19.9842,57.6142,73.99,79,39,3,MU,1611709962
47,bengkulu,-3.8004,102.2655,74.3,88,100,3.8,ID,1611709962
48,north platte,41.1239,-100.7654,17.6,79,90,9.22,US,1611709962
49,nauta,-4.5061,-73.5757,73.78,92,100,1.39,PE,1611709963
50,mount isa,-20.7333,139.5,89.6,48,0,5.75,AU,1611709963
51,ostrovnoy,68.0531,39.5131,6.12,94,100,15.68,RU,1611709963
52,illoqqortoormiut,,,,,,,,
53,vila velha,-20.3297,-40.2925,78.8,78,20,9.22,BR,1611709736
54,vaini,-21.2,-175.2,82.4,83,75,11.5,TO,1611709963
55,kota belud,6.351,116.4305,80.6,78,20,3.44,MY,1611709963
56,nalut,30.3333,10.85,46.65,62,0,9.31,LY,1611709963
57,fortuna,40.5982,-124.1573,39.99,93,90,29.93,US,1611709964
58,kapaa,22.0752,-159.319,77,78,90,14.97,US,1611709964
59,henties bay,-22.116,14.2845,68,88,70,5.44,NA,1611709964
60,namibe,-15.1961,12.1522,75.54,76,5,5.55,AO,1611709964
61,yurovka,45.1147,37.4188,51.8,66,100,15.66,RU,1611709964
62,jamestown,42.097,-79.2353,33.01,100,90,15.1,US,1611709964
63,jibuti,11.5,42.5,71.6,73,20,9.82,DJ,1611709964
64,mayo,38.8876,-76.5119,37.4,100,90,3.44,US,1611709965
65,matagami,49.7502,-77.6328,8.6,92,90,11.5,CA,1611709965
66,yumen,40.2833,97.2,18.63,78,0,26.8,CN,1611709965
67,matara,5.9485,80.5353,70.74,85,71,5.93,LK,1611709965
68,mar del plata,-38.0023,-57.5575,71.01,94,75,7.83,AR,1611709690
69,tumannyy,,,,,,,,
70,pathanamthitta,9.2667,76.7833,65.64,84,0,2.51,IN,1611709965
71,sakakah,29.9697,40.2064,48.2,34,0,8.43,SA,1611709933
72,nyimba,-14.5566,30.8149,67.17,93,94,1.54,ZM,1611709966
73,upernavik,72.7868,-56.1549,2.55,91,60,12.44,GL,1611709966
74,faanui,-16.4833,-151.75,81.81,72,4,16.04,PF,1611709966
75,port-cartier,50.0334,-66.8654,30.2,80,76,2.3,CA,1611709966
76,karachi,24.9056,67.0822,50,81,0,9.22,PK,1611709686
77,rikitea,-23.1203,-134.9692,80.55,70,24,9.04,PF,1611709966
78,saint-philippe,-21.3585,55.7679,75.2,57,0,6.91,RE,1611709966
79,cortez,37.3489,-108.5859,16,85,40,4.9,US,1611709966
80,butaritari,3.0707,172.7902,81.25,75,0,9.35,KI,1611709749
81,bambous virieux,-20.3428,57.7575,73.99,83,20,6.91,MU,1611709753
82,guerrero negro,27.9769,-114.0611,58.24,56,100,12.55,MX,1611709739
83,margate,51.3813,1.3862,43,90,100,4,GB,1611709967
84,new norfolk,-42.7826,147.0587,57.99,51,100,4,AU,1611709967
85,yellowknife,62.456,-114.3525,-11,70,75,5.75,CA,1611709967
86,louisbourg,,,,,,,,
87,poum,-20.2333,164.0167,81.55,74,100,17.94,NC,1611709967
88,yar-sale,66.8333,70.8333,-33.32,82,0,13.29,RU,1611709968
89,arraial do cabo,-22.9661,-42.0278,78.8,73,0,18.41,BR,1611709892
90,goderich,43.7501,-81.7165,26.6,86,94,8.05,CA,1611709968
91,ghazipur,25.5833,83.5667,42.8,63,0,5.66,IN,1611709968
92,port alfred,-33.5906,26.891,69.01,95,100,4.36,ZA,1611709968
93,lolua,,,,,,,,
94,barentsburg,,,,,,,,
95,poltavka,54.3663,71.7632,19.87,97,100,14.58,RU,1611709968
96,amderma,,,,,,,,
97,carnarvon,-24.8667,113.6333,73.4,56,40,31.07,AU,1611709870
98,mataura,-46.1927,168.8643,77,49,100,11.99,NZ,1611709969
99,makakilo city,21.3469,-158.0858,80.6,54,75,12.66,US,1611709706
100,fort nelson,58.8053,-122.7002,-5.8,71,75,8.05,CA,1611709739
101,prieska,-29.6641,22.7474,74.44,66,100,7.54,ZA,1611709969
102,inongo,-1.95,18.2667,73.31,88,99,3.38,CD,1611709688
103,bethel,41.3712,-73.414,27,93,90,3.44,US,1611709676
104,muzquiz,,,,,,,,
105,sinnamary,5.3833,-52.95,77.76,86,81,13.47,GF,1611709971
106,ribeira grande,38.5167,-28.7,63.32,80,97,32.95,PT,1611709971
107,torbay,47.6666,-52.7314,33.01,100,90,20.71,CA,1611709971
108,revelstoke,50.9832,-118.2023,28.4,80,90,2.3,CA,1611709971
109,tazovskiy,67.4667,78.7,-28.89,85,100,8.66,RU,1611709971
110,leningradskiy,69.3833,178.4167,-20.11,86,95,6.89,RU,1611709920
111,mutsamudu,,,,,,,,
112,palana,59.1167,159.9667,0.32,96,100,10.71,RU,1611709972
113,noumea,-22.2763,166.4572,89.6,43,75,4.61,NC,1611709972
114,qaanaaq,77.484,-69.3632,-16.24,63,0,6.89,GL,1611709972
115,shimoda,34.6667,138.95,62.6,94,75,25.32,JP,1611709972
116,rokiskis,55.9667,25.5833,32.23,99,100,7.16,LT,1611709972
117,nikolskoye,59.7035,30.7861,35.6,87,90,8.95,RU,1611709768
118,balkanabat,39.5108,54.3671,37.62,71,61,4.47,TM,1611709972
119,hasaki,35.7333,140.8333,48,87,75,4.61,JP,1611709972
120,harare,-17.8294,31.0539,64,89,29,5.01,ZW,1611709973
121,cayenne,4.9333,-52.3333,77,100,75,13.67,GF,1611709973
122,orcopampa,-15.2661,-72.3417,46.36,57,84,5.68,PE,1611709973
123,bluff,-46.6,168.3333,77,49,100,11.99,NZ,1611709973
124,kaitangata,-46.2817,169.8464,71.26,50,100,3.65,NZ,1611709783
125,gat,31.61,34.7642,55,76,0,2.3,IL,1611709698
126,airai,-8.9266,125.4092,69.49,80,100,3.69,TL,1611709973
127,wau,7.7029,27.9953,73.44,27,98,5.26,SS,1611709973
128,hamilton,39.1834,-84.5333,37.99,70,90,16.11,US,1611709974
129,severo-kurilsk,50.6789,156.125,25.81,95,82,23,RU,1611709680
130,delta del tigre,-34.7633,-56.3853,77,83,90,5.75,UY,1611709974
131,dibaya,,,,,,,,
132,hella,67.2,14.4333,26.6,63,0,19.57,NO,1611709974
133,imbituba,-28.24,-48.6703,77,94,0,6.91,BR,1611709974
134,baykit,61.67,96.37,-45.44,72,49,2.51,RU,1611709773
135,lagoa,39.05,-27.9833,62.62,83,100,31.47,PT,1611709974
136,port elizabeth,-33.918,25.5701,68,94,40,8.05,ZA,1611709975
137,novyy yegorlyk,46.3927,41.8716,36.45,84,100,14.43,RU,1611709975
138,tautira,-17.7333,-149.15,82.4,65,75,9.22,PF,1611709975
139,tsihombe,,,,,,,,
140,mayya,61.7333,130.2811,-54.4,52,90,3.42,RU,1611709807
141,kysucke nove mesto,49.3,18.7833,26.6,86,90,1.14,SK,1611709975
142,georgetown,5.4112,100.3354,79,88,20,4.61,MY,1611709940
143,mount gambier,-37.8333,140.7667,68,40,10,24.16,AU,1611709697
144,amursk,50.2261,136.8994,-3.05,90,100,14.2,RU,1611709976
145,la ronge,55.1001,-105.2842,-20.2,76,0,2.3,CA,1611709843
146,tuktoyaktuk,69.4541,-133.0374,-14.8,76,75,12.66,CA,1611709702
147,bur gabo,,,,,,,,
148,alta floresta,-9.8756,-56.0861,74.3,88,100,1.45,BR,1611709976
149,marawi,7.9986,124.2928,81,81,100,1.99,PH,1611709976
150,padang,-0.9492,100.3543,75.2,88,20,2.3,ID,1611709762
151,provideniya,64.3833,-173.3,6.8,78,75,17.9,RU,1611709976
152,thompson,55.7435,-97.8558,-14.8,84,75,3.76,CA,1611709976
153,saldanha,-33.0117,17.9442,62.6,82,0,8.05,ZA,1611709736
154,hambantota,6.1241,81.1185,68,100,40,2.3,LK,1611709977
155,kampong chhnang,12.1667,104.55,74.8,66,92,2.68,KH,1611709977
156,primore,,,,,,,,
157,marcona,,,,,,,,
158,tasiilaq,65.6145,-37.6368,8.74,93,100,9.86,GL,1611709977
159,atar,20.5169,-13.0499,67.3,22,0,7.47,MR,1611709977
160,linhares,-19.3911,-40.0722,72.52,87,100,2.24,BR,1611709977
161,vardo,70.3705,31.1107,24.84,95,100,26.71,NO,1611709745
162,lekoni,-1.5843,14.2591,73.33,84,100,3.51,GA,1611709978
163,peniche,39.3558,-9.3811,59,95,100,8.99,PT,1611709889
164,moose factory,51.2585,-80.6094,-2.2,84,90,2.3,CA,1611709978
165,christchurch,-43.5333,172.6333,95,18,0,13.8,NZ,1611709878
166,san patricio,28.017,-97.5169,73.4,83,1,8.05,US,1611709978
167,huarmey,-10.0681,-78.1522,71.92,77,100,8.93,PE,1611709978
168,ondjiva,-17.0667,15.7333,66.18,94,100,7.96,AO,1611709978
169,lima,-12.0432,-77.0282,78.01,82,100,10.6,PE,1611709958
170,benghazi,32.1167,20.0667,58.68,69,5,26.71,LY,1611709876
171,muzhi,65.3667,64.6667,-28.71,82,100,3.4,RU,1611709979
172,manokwari,-0.8667,134.0833,77.14,87,100,9.17,ID,1611709979
173,cabedelo,-6.9811,-34.8339,78.8,83,20,9.22,BR,1611709827
174,zhigansk,66.7697,123.3711,-48.86,75,57,9.13,RU,1611709979
175,santa fe,-31.6333,-60.7,77,88,75,6.91,AR,1611709830
176,mackay,-21.15,149.2,87.01,66,9,11.5,AU,1611709979
177,san cristobal,7.7669,-72.225,65.08,79,4,1.83,VE,1611709831
178,dunedin,-45.8742,170.5036,73.71,45,100,16.51,NZ,1611709980
179,castro,-24.7911,-50.0119,65.75,93,100,4.72,BR,1611709965
180,huilong,31.8111,121.655,48,72,0,1.99,CN,1611709980
181,lloydminster,53.2835,-110.0016,-5.8,84,90,14.97,CA,1611709980
182,ginir,7.1333,40.7,54.1,39,0,3.11,ET,1611709980
183,jumla,29.2747,82.1838,31.77,39,0,4.83,NP,1611709713
184,wajima,37.4,136.9,42.8,93,75,3.44,JP,1611709980
185,wanning,18.8003,110.3967,68.11,83,7,4.74,CN,1611709980
186,saint-pierre,-21.3393,55.4781,75.2,64,0,9.22,RE,1611709835
187,itarema,-2.9248,-39.9167,79.63,82,86,10.96,BR,1611709981
188,trabzon,40.9167,39.8333,66.2,20,0,13.8,TR,1611709981
189,florianopolis,-27.6146,-48.5012,78.01,94,0,6.91,BR,1611709981
190,zalantun,48,122.7167,-3.26,82,6,6.76,CN,1611709945
191,pimentel,-6.8367,-79.9342,72.07,77,85,12.77,PE,1611709981
192,mrirt,,,,,,,,
193,grindavik,63.8424,-22.4338,30.2,55,0,21.85,IS,1611709982
194,viedma,-40.8135,-62.9967,59,81,0,14.14,AR,1611709982
195,east london,-33.0153,27.9116,72.3,88,100,8.84,ZA,1611709706
196,sokoni,-6.4333,39.55,80.53,78,19,7.11,TZ,1611709982
197,puerto penasco,31.3167,-113.5333,55.99,49,0,1.99,MX,1611709946
198,westport,41.1415,-73.3579,30.99,93,90,8.05,US,1611709982
199,yenagoa,4.9247,6.2642,78.08,88,100,2.98,NG,1611709982
200,deputatskiy,69.3,139.9,-39.17,84,100,3.18,RU,1611709712
201,nioki,-2.7167,17.6833,71.33,97,45,2.75,CD,1611709983
202,jaitaran,26.2031,73.9364,50.11,47,0,7.76,IN,1611709983
203,beloha,-25.1667,45.05,72.95,92,100,6.73,MG,1611709727
204,flinders,-34.5833,150.8552,66.99,95,100,3,AU,1611709838
205,turan,16.0678,108.2208,69.8,94,75,2.3,VN,1611709858
206,fairbanks,64.8378,-147.7164,-9.99,70,20,1.39,US,1611709902
207,asuncion,-25.3007,-57.6359,75.2,100,90,3.44,PY,1611709903
208,skjervoy,70.0311,20.9714,23.5,90,13,22.17,NO,1611709924
209,ancud,-41.8697,-73.8203,57.2,67,90,4.61,CL,1611709984
210,samana,19.2056,-69.3369,74.01,82,53,8.39,DO,1611709984
211,touros,-5.1989,-35.4608,79.02,79,50,14.25,BR,1611709873
212,lebu,-37.6167,-73.65,56.82,78,91,16.42,CL,1611709984
213,minab,27.1467,57.0801,57.2,77,0,4.61,IR,1611709984
214,norman wells,65.282,-126.8329,-18.4,83,75,3.44,CA,1611709984
215,lata,40.1629,-8.3327,59,100,100,0.94,PT,1611709744
216,sitka,57.0531,-135.33,32,47,40,7.27,US,1611709985
217,katubao,5.8892,124.8294,83.07,65,100,2.84,PH,1611709985
218,aklavik,68.2191,-135.0107,-11.2,77,100,2.3,CA,1611709762
219,strezhevoy,60.7333,77.5889,-14.8,76,20,4.47,RU,1611709744
220,yabelo,4.8833,38.0833,55.06,41,2,7.94,ET,1611709985
221,vila,42.0304,-8.1588,54,96,100,5.99,PT,1611709757
222,mandiana,10.6333,-8.6833,70,22,0,4.23,GN,1611709985
223,karratha,-20.7377,116.8463,95.18,16,0,13.67,AU,1611709986
224,longyearbyen,78.2186,15.6401,6.8,51,0,18.41,SJ,1611709986
225,ugoofaaru,5.6667,73,81.09,59,100,8.57,MV,1611709986
226,bathsheba,13.2167,-59.5167,77,73,20,14.97,BB,1611709692
227,grand gaube,-20.0064,57.6608,73.99,79,41,3,MU,1611709986
228,wadowice,49.8834,19.4929,28,86,75,8.05,PL,1611709986
229,pomabamba,-8.8333,-77.4667,53.46,70,100,3.47,PE,1611709986
230,balakhta,55.38,91.6,-22.34,85,100,2.8,RU,1611709987
231,comodoro rivadavia,-45.8667,-67.5,62.6,48,0,9.22,AR,1611709804
232,bin qirdan,33.1378,11.2197,51.8,58,0,16.44,TN,1611709987
233,straumen,63.8709,11.2999,39,93,75,6.91,NO,1611709987
234,madimba,-10.4,40.3333,76.51,78,0,2.8,TZ,1611709987
235,polczyn-zdroj,53.7642,16.0957,30.99,94,87,1.01,PL,1611709987
236,taman,45.2117,36.7161,51.8,66,100,15.66,RU,1611709987
237,srandakan,-7.9386,110.2506,78.66,82,100,3.89,ID,1611709987
238,assela,,,,,,,,
239,acapulco,16.8634,-99.8901,77.04,75,7,5.53,MX,1611709929
240,ola,59.5833,151.2833,-6.59,84,87,10.98,RU,1611709725
241,porto novo,6.4965,2.6036,82.4,83,40,11.5,BJ,1611709988
242,waddan,29.1614,16.139,50.74,58,0,15.14,LY,1611709988
243,hilo,19.7297,-155.09,78.8,65,1,9.22,US,1611709988
244,kismayo,-0.3582,42.5454,75.69,85,4,12.12,SO,1611709988
245,amurzet,47.6967,131.0981,2.35,85,0,8.95,RU,1611709989
246,salgueiro,-8.0742,-39.1192,76.75,64,1,21.85,BR,1611709989
247,ternate,0.8,127.4,81.9,74,100,3.69,ID,1611709989
248,hithadhoo,-0.6,73.0833,81.28,77,100,12.12,MV,1611709744
249,upington,-28.4478,21.2561,77,69,45,4.61,ZA,1611709989
250,sentyabrskiy,,,,,,,,
251,pakenham,-38.0667,145.4833,70,50,7,7,AU,1611709833
252,ballina,-28.8667,153.5667,84.2,65,0,13.8,AU,1611709989
253,ahipara,-35.1667,173.1667,75.07,63,6,5.93,NZ,1611709990
254,kalmunai,7.4167,81.8167,73.99,80,88,8.84,LK,1611709704
255,kamenskoye,,,,,,,,
256,kyra,49.5776,111.9753,-15.95,79,0,3.78,RU,1611709990
257,saleaula,,,,,,,,
258,victoria,22.2855,114.1577,64.99,77,5,1.01,HK,1611709977
259,lethem,3.3803,-59.7968,80.04,64,21,13.44,GY,1611709990
260,borlange,,,,,,,,
261,portobelo,9.55,-79.65,79,99,40,12.35,PA,1611709991
262,qaqortoq,60.7167,-46.0333,10.53,81,0,9.24,GL,1611709991
263,fare,-16.7,-151.0167,80.67,75,85,15.7,PF,1611709991
264,te anau,-45.4167,167.7167,68.23,63,34,14.23,NZ,1611709945
265,vanimo,-2.6741,141.3028,80.74,81,100,3.38,PG,1611709722
266,keetmanshoop,-26.5833,18.1333,72.63,31,63,11.52,NA,1611709991
267,umzimvubu,,,,,,,,
268,mabaruma,8.2,-59.7833,73.38,93,65,5.12,GY,1611709992
269,santarem,-2.4431,-54.7083,75.2,100,0,1.34,BR,1611709992
270,hovd,48.0056,91.6419,-4.63,80,0,0.92,MN,1611709992
271,formosa,-26.1775,-58.1781,75.2,100,90,5.82,AR,1611709858
272,narsaq,60.9167,-46.05,9.72,78,0,9.46,GL,1611709766
273,bandarbeyla,9.4942,50.8122,72.28,77,40,18.48,SO,1611709992
274,dubai,25.2582,55.3047,63,82,0,4.61,AE,1611709947
275,adrar,20.5022,-10.0711,65.84,21,0,8.43,MR,1611709992
276,toliary,,,,,,,,
277,dudinka,69.4058,86.1778,-18.02,88,100,9.13,RU,1611709993
278,taoudenni,22.6783,-3.9836,68.95,22,0,14.34,ML,1611709993
279,stepnogorsk,52.3544,71.8869,24.21,97,26,13.98,KZ,1611709993
280,evensk,61.95,159.2333,2.07,86,100,11.9,RU,1611709993
281,sungaipenuh,-2.0833,101.3833,66.51,82,100,2.77,ID,1611709993
282,los llanos de aridane,28.6585,-17.9182,64.4,72,0,10.36,ES,1611709818
283,souillac,-20.5167,57.5167,73.4,83,20,6.91,MU,1611709993
284,champerico,14.3,-91.9167,69.01,93,0,7.52,GT,1611709994
285,meulaboh,4.1363,96.1285,75.38,87,100,4.9,ID,1611709770
286,labuhan,-6.8844,112.2051,81.03,79,100,8.01,ID,1611709994
287,tuatapere,-46.1333,167.6833,77,49,72,11.99,NZ,1611709994
288,tymovskoye,50.8456,142.655,6.91,92,100,4.97,RU,1611709994
289,richards bay,-28.783,32.0377,76.37,91,100,7.34,ZA,1611709930
290,pechenga,69.5259,31.1703,17.6,79,40,11.5,RU,1611709994
291,klaksvik,62.2266,-6.589,33.8,86,88,14.97,FO,1611709730
292,umm durman,,,,,,,,
293,progreso,21.2833,-89.6667,82.99,65,57,7.07,MX,1611709740
294,bratsk,56.1325,101.6142,-29,68,9,4.47,RU,1611709995
295,zuidhorn,53.2467,6.4028,37,93,100,10.36,NL,1611709995
296,katsuura,35.1333,140.3,50,96,100,3,JP,1611709995
297,shuangcheng,45.35,126.2833,-2.2,71,0,13.42,CN,1611709995
298,jarjis,,,,,,,,
299,calvia,39.5657,2.5062,57,52,41,1.99,ES,1611709765
300,kruisfontein,-34.0033,24.7314,71.01,83,98,6.58,ZA,1611709996
301,laiyang,36.9758,120.7136,41,62,81,2.89,CN,1611709996
302,sebring,27.4956,-81.4409,73.4,73,1,5.75,US,1611709996
303,pyapon,16.2833,95.6833,70.16,58,54,5.48,MM,1611709996
304,karaul,,,,,,,,
305,saint paul,44.9444,-93.0933,17.6,48,1,8.05,US,1611709865
306,chilia veche,45.4167,29.2833,32,93,90,21.85,RO,1611709997
307,sao joao da barra,-21.6403,-41.0511,77.88,83,77,19.75,BR,1611709997
308,ilulissat,69.2167,-51.1,2.52,92,99,2.73,GL,1611709997
309,gizo,-8.103,156.8419,85.3,73,100,13.49,SB,1611709997
310,tawkar,,,,,,,,
311,aleksandrovskiy zavod,50.9237,117.9374,-13.47,87,100,4.12,RU,1611709997
312,aykhal,66,111.5,-38.04,79,0,1.54,RU,1611709997
313,qiyang,26.5911,111.8474,47.73,62,92,2.3,CN,1611709998
314,opuwo,-18.0607,13.84,68.2,69,100,2.28,NA,1611709998
315,kavaratti,10.5669,72.642,80.55,71,51,14.16,IN,1611709998
316,ankazobe,-18.3167,47.1167,64.4,94,20,2.95,MG,1611709998
317,axim,4.8699,-2.2405,78.06,87,96,4.34,GH,1611709998
318,iranshahr,27.2025,60.6848,44.6,15,0,6.91,IR,1611709998
319,kharovsk,59.9642,40.1912,32.16,98,100,10.38,RU,1611709998
320,constitucion,-35.3333,-72.4167,55.26,79,0,13.4,CL,1611709831
321,mecca,21.4267,39.8261,71.44,74,43,0.96,SA,1611709917
322,karonga,-9.9333,33.9333,73.24,78,100,3.91,MW,1611709999
323,kaoma,-14.7833,24.8,64.4,97,100,4,ZM,1611709999
324,vila franca do campo,37.7167,-25.4333,63,94,75,19.57,PT,1611709999
325,birzai,56.2,24.75,33.6,99,100,10.38,LT,1611709999
326,zile,40.3031,35.8864,46.4,66,75,5.75,TR,1611709999
327,gazli,40.1333,63.45,30.79,94,0,8.23,UZ,1611709999
328,chara,56.9064,118.2631,-23.51,81,100,1.34,RU,1611709999
329,lemesos,,,,,,,,
330,menomonie,44.8755,-91.9193,17.6,73,90,6.91,US,1611709720
331,bom jardim,-7.7958,-35.5872,75.2,78,40,14.97,BR,1611710000
332,dorsten,51.6667,6.9667,35.01,86,100,3,DE,1611710000
333,burica,,,,,,,,
334,vao,-22.6667,167.4833,76.73,80,34,23.49,NC,1611709876
335,warmbad,-28.45,18.7333,71.02,32,20,13.67,NA,1611710000
336,hami,42.8,93.45,14.77,83,0,2.37,CN,1611709979
337,cherskiy,68.75,161.3,-35.09,80,100,1.57,RU,1611709800
338,oksfjord,70.2396,22.3479,23,92,90,2.3,NO,1611710001
339,altar,30.7,-111.8167,48,71,2,7.92,MX,1611710001
340,rocha,-34.4833,-54.3333,73.53,82,100,4.18,UY,1611709887
341,sao filipe,14.8961,-24.4956,72.77,70,0,3.24,CV,1611710001
342,alyangula,-13.8483,136.4192,86,74,40,12.66,AU,1611710001
343,zhigalovo,54.8097,105.1578,-25.28,82,100,1.99,RU,1611710001
344,zhanaozen,43.3,52.8,27.36,82,0,16.31,KZ,1611710001
345,senanga,-16.1167,23.2667,65.8,94,100,7.85,ZM,1611710002
346,coruripe,-10.1256,-36.1756,77.09,82,100,9.66,BR,1611710002
347,tabialan,,,,,,,,
348,jacareacanga,-6.2222,-57.7528,74.95,94,100,2.21,BR,1611709803
349,cidreira,-30.1811,-50.2056,74.97,92,100,6.33,BR,1611710002
350,verkhoshizhemye,58.011,49.1038,21.13,97,100,8.57,RU,1611710002
351,attawapiskat,,,,,,,,
352,mbuji-mayi,-6.15,23.6,69.64,91,100,3.62,CD,1611710002
353,inhambane,-23.865,35.3833,78.15,87,96,6.71,MZ,1611710003
354,coquimbo,-29.9533,-71.3436,62.6,82,90,6.91,CL,1611709808
355,ludvika,60.1496,15.1878,15.01,92,0,5.75,SE,1611710003
356,datong,40.0936,113.2914,20.95,82,75,6.8,CN,1611710003
357,kysyl-syr,63.8986,122.7617,-49.97,76,100,5.1,RU,1611710003
358,chuy,-33.6971,-53.4616,75.6,80,100,9.17,UY,1611710003
359,vinh long,10.25,105.9667,75.2,94,75,1.14,VN,1611709887
360,lokosovo,61.1333,74.8167,-2.96,92,100,7.36,RU,1611710004
361,calvinia,-31.4707,19.776,62.67,62,100,5.84,ZA,1611710004
362,mandya,12.5242,76.8958,60.8,94,100,2.62,IN,1611710004
363,antigonish,45.6169,-61.9986,33.01,86,79,1.99,CA,1611710004
364,waipawa,-41.4122,175.5153,75.2,60,0,18.41,NZ,1611710004
365,port hedland,-20.3167,118.5667,96.8,19,0,14.97,AU,1611710004
366,port lincoln,-34.7333,135.8667,66.24,67,45,15.39,AU,1611710004
367,mys shmidta,,,,,,,,
368,koulikoro,14,-7.75,67.69,20,0,9.33,ML,1611710005
369,alice springs,-23.7,133.8833,80.6,69,75,9.22,AU,1611709768
370,asau,46.4333,26.4,30.99,54,100,7.54,RO,1611710005
371,cabo san lucas,22.8909,-109.9124,64,63,100,11.01,MX,1611710005
372,boguchany,58.3814,97.4531,-41.33,77,29,2.64,RU,1611710005
373,saint-francois,46.4154,3.9054,34,86,0,2.3,FR,1611709902
374,high level,58.5169,-117.136,-0.4,85,75,3.44,CA,1611710005
375,north bend,43.4065,-124.2243,41,95,100,5.99,US,1611709956
376,tecoanapa,16.5167,-98.75,77.99,77,34,7.07,MX,1611710006
377,nikolsk,53.7189,46.0712,33.73,92,100,15.12,RU,1611710006
378,ust-tsilma,65.441,52.1498,-4.77,91,100,7.9,RU,1611710006
379,paamiut,61.994,-49.6678,15.17,79,0,10.49,GL,1611709732
380,fershampenuaz,53.5202,59.8117,20.88,97,100,12.39,RU,1611710006
381,denpasar,-8.65,115.2167,82.4,78,40,16.11,ID,1611710006
382,aksu,41.1231,80.2644,15.64,87,0,1.83,CN,1611710006
383,taperoa,-7.2075,-36.8267,73.67,75,86,18.63,BR,1611710006
384,nara,34.6851,135.8049,57,71,75,5.75,JP,1611710007
385,trzebiatow,54.0615,15.2648,35.01,83,49,13.58,PL,1611710007
386,vaitupu,,,,,,,,
387,mercedes,-34.6515,-59.4307,80.01,74,100,1.01,AR,1611710007
388,dicabisagan,17.0818,122.4157,74.7,85,100,9.44,PH,1611710007
389,port blair,11.6667,92.75,76.69,83,91,9.08,IN,1611709862
390,baghdad,33.3406,44.4009,42.8,56,0,4.61,IQ,1611709727
391,meaford,44.6001,-80.583,26.01,92,100,4,CA,1611710007
392,port hawkesbury,45.6169,-61.3485,30.99,93,1,2.3,CA,1611710008
393,slonim,53.0867,25.3219,29.8,97,100,16.96,BY,1611710008
394,launceston,-41.45,147.1667,64.99,48,0,18.41,AU,1611709760
395,marzuq,14.4,46.4667,52.99,40,0,2.24,YE,1611710008
396,kavieng,-2.5744,150.7967,85.08,72,100,9.98,PG,1611710008
397,rio gallegos,-51.6226,-69.2181,48.2,31,75,20.71,AR,1611710008
398,okakarara,-20.5833,17.4333,67.71,77,100,8.39,NA,1611710008
399,bentiu,9.2333,29.8333,74.79,29,0,5.03,SS,1611710009
400,svetlaya,46.5389,138.3297,28.98,92,100,17.92,RU,1611710009
401,russell,32.3502,-85.1999,64.4,72,90,3.44,US,1611709843
402,panguna,-6.3164,155.4848,84.72,60,100,3.78,PG,1611709712
403,daru,-9.0763,143.2092,82.99,81,98,12.17,PG,1611710009
404,payo,-3.7508,103.6372,72.45,96,100,2.3,ID,1611709768
405,ocampo,21.65,-101.5,59.85,33,86,11.63,MX,1611710009
406,pangnirtung,66.1451,-65.7125,4.75,69,0,1.72,CA,1611709873
407,yuzhno-kurilsk,44.0306,145.8556,30.97,98,100,24.47,RU,1611710010
408,galgani,,,,,,,,
409,lorengau,-2.0226,147.2712,85.1,71,100,11.77,PG,1611709754
410,lokoja,7.8024,6.743,76.86,21,3,1.81,NG,1611710010
411,chokurdakh,70.6333,147.9167,-31.11,82,89,7.45,RU,1611709798
412,buraydah,26.326,43.975,53.6,58,0,5.91,SA,1611709770
413,abu dhabi,24.4667,54.3667,66.2,82,0,1.14,AE,1611709980
414,ponta delgada,37.7333,-25.6667,63,94,75,19.57,PT,1611710010
415,halifax,44.6453,-63.5724,33.8,80,98,5.75,CA,1611709805
416,ust-kuyga,70.0167,135.6,-40.34,77,100,2.75,RU,1611710011
417,xining,36.6167,101.7667,13.6,72,20,0.87,CN,1611710004
418,laguna,38.421,-121.4238,50,49,90,16.11,US,1611709841
419,kisangani,0.5167,25.2,70.47,97,100,0.78,CD,1611710011
420,rudnytsya,,,,,,,,
421,nicoya,10.1483,-85.452,77.4,68,0,9.44,CR,1611709886
422,esperance,-33.8667,121.9,62.6,82,90,8.05,AU,1611710011
423,kindu,-2.95,25.95,70.32,96,100,3.04,CD,1611710011
424,sola,-13.8833,167.55,86,79,90,9.22,VU,1611709767
425,karkaralinsk,,,,,,,,
426,azovo,54.6997,73.0237,24.8,93,75,11.18,RU,1611710012
427,zarubino,42.63,131.0922,20.84,78,0,23.26,RU,1611710012
428,bokspits,,,,,,,,
429,hastings,50.8552,0.5729,45,92,100,5.01,GB,1611710012
430,tabukiniberu,,,,,,,,
431,saskylakh,71.9167,114.0833,-35.37,82,28,1.92,RU,1611710012
432,haines junction,60.7522,-137.5108,-7.6,84,0,2.3,CA,1611710013
433,mangai,-4.05,19.5333,69.73,96,100,1.97,CD,1611710013
434,chagda,,,,,,,,
435,zhukovskiy,55.5953,38.1203,36,93,75,13.42,RU,1611710013
436,gunjur,13.2019,-16.7339,66.2,77,0,6.58,GM,1611710013
437,kangaatsiaq,68.3065,-53.4641,11.62,95,100,5.35,GL,1611710013
438,talcahuano,-36.7167,-73.1167,60.8,59,0,13.8,CL,1611710013
439,alofi,-19.0595,-169.9187,84.2,74,75,11.5,NU,1611709767
440,tongliao,43.6125,122.2653,1.63,86,87,6.93,CN,1611710014
441,raudeberg,61.9875,5.1352,28.99,93,34,9.22,NO,1611709942
442,polis,35.0367,32.4264,50,76,100,5.75,CY,1611710014
443,bayevo,53.2833,80.7667,27.95,98,100,16.75,RU,1611710014
444,naze,28.3667,129.4833,62.6,82,75,10.36,JP,1611710014
445,muros,42.7762,-9.0603,57.99,96,100,5.01,ES,1611710014
446,zima,53.9202,102.0442,-28.3,85,1,3.22,RU,1611710014
447,redmond,47.674,-122.1215,43,69,100,7.76,US,1611709749
448,hokitika,-42.7167,170.9667,68.16,76,0,7.78,NZ,1611710015
449,kahului,20.8947,-156.47,82.4,54,40,23.02,US,1611709917
450,santa isabel do rio negro,-0.4139,-65.0192,76.33,82,100,1.39,BR,1611710015
451,clyde river,70.4692,-68.5914,3.2,85,1,28.77,CA,1611710015
452,palmer,42.1584,-72.3287,28,93,100,4.43,US,1611710015
453,benjamin aceval,-24.9667,-57.5667,75.2,100,90,3.44,PY,1611710015
454,port keats,-14.25,129.55,80.76,84,100,4.85,AU,1611710015
455,bonthe,7.5264,-12.505,77.23,84,0,5.75,SL,1611709988
456,west odessa,31.8424,-102.4988,48.2,29,1,9.22,US,1611710016
457,nouadhibou,20.931,-17.0347,64.4,77,0,17.27,MR,1611709884
458,grand river south east,,,,,,,,
459,mao,39.8885,4.2658,53.6,82,75,6.91,ES,1611710016
460,norden,53.6,7.2,35.01,90,100,1.99,DE,1611710016
461,hirara,24.8,125.2833,68,73,75,11.5,JP,1611710016
462,arecibo,18.4724,-66.7157,77,85,9,1.01,PR,1611710016
463,portland,45.5234,-122.6762,36,93,90,26.46,US,1611709925
464,xai-xai,-25.0519,33.6442,74.25,92,100,7.52,MZ,1611710017
465,bernay,49.1667,0.6667,37,90,93,3,FR,1611710017
466,talnakh,69.4865,88.3972,-20.72,84,100,6.96,RU,1611710017
467,cody,44.5263,-109.0565,21.99,68,1,4.61,US,1611709857
468,bajo baudo,,,,,,,,
469,grahamstown,-33.3042,26.5328,69.01,95,100,3.04,ZA,1611710017
470,trelew,-43.249,-65.3051,64.69,38,36,9.06,AR,1611710017
471,nome,64.5011,-165.4064,15.8,73,90,3.44,US,1611710018
472,bam,29.106,58.357,41.11,45,0,3.78,IR,1611710018
473,gillette,44.2911,-105.5022,17.6,73,90,18.41,US,1611710018
474,salalah,17.0151,54.0924,73.4,31,0,9.22,OM,1611710018
475,new baltimore,42.6811,-82.7369,30.99,90,89,1.01,US,1611710018
476,tagusao,9.1924,117.8141,79.79,69,1,2.1,PH,1611710018
477,pasni,25.2631,63.471,64.08,30,0,5.46,PK,1611710018
478,muhos,64.808,25.9931,27,100,90,5.75,FI,1611710018
479,lavrentiya,65.5833,-171,-3.62,87,6,5.3,RU,1611710019
480,golfito,8.639,-83.166,75.74,89,35,0.69,CR,1611710019
481,vung tau,10.346,107.0843,77.13,72,59,8.84,VN,1611709910
482,sibolga,1.7427,98.7792,77.18,79,74,2.68,ID,1611710019
483,eenhana,-17.4667,16.3333,67.01,91,100,7.18,NA,1611710019
484,santa rita,-7.1139,-34.9781,78.8,83,20,9.22,BR,1611710019
485,ypsilanti,42.2412,-83.613,28.99,80,90,9.22,US,1611709863
486,caravelas,-17.7125,-39.2481,75.36,81,88,5.61,BR,1611709738
487,severnyy,50.677,36.5532,32,100,90,2.24,RU,1611710020
488,sal rei,16.1833,-22.9167,68,88,0,13.8,CV,1611710020
489,tevriz,57.509,72.4042,31.82,98,100,10.98,RU,1611710020
490,ewa beach,21.3156,-158.0072,80.6,54,75,12.66,US,1611710020
491,caceres,39.522,-6.3748,55.99,93,56,4.59,ES,1611710020
492,brae,60.3964,-1.353,30.2,80,56,3.44,GB,1611710020
493,palabuhanratu,,,,,,,,
494,peruibe,-24.32,-46.9983,75.96,84,100,3.56,BR,1611710020
495,orlik,52.5178,99.825,-29.87,73,41,2.21,RU,1611710021
496,almeirim,-1.5233,-52.5817,75.4,94,100,4.23,BR,1611710021
497,kristianstad,56.0313,14.1524,28.4,100,75,8.05,SE,1611710021
498,sharan,54.8167,54,22.17,97,100,13.53,RU,1611710021
499,linares,-35.85,-71.6,62.76,36,0,2.55,CL,1611710006
500,negombo,7.2083,79.8358,69.8,88,0,4.61,LK,1611710021
501,francistown,-21.17,27.5079,67.35,88,65,5.79,BW,1611710021
502,pacific grove,36.6177,-121.9166,51.01,53,90,4.61,US,1611710021
503,halalo,,,,,,,,
504,port hardy,50.6996,-127.4199,44.6,70,75,31.07,CA,1611709934
505,saryshagan,,,,,,,,
506,shelburne,44.0787,-80.2041,25,93,98,12.08,CA,1611710022
507,erdenet,49.0333,104.0833,-17.61,83,0,4.41,MN,1611710022
508,roald,62.5833,6.1333,30.2,93,20,9.22,NO,1611710022
509,mahon,39.8885,4.2658,53.6,82,75,6.91,ES,1611710016
510,dalhousie,32.5333,75.9833,31.19,70,0,9.08,IN,1611710022
511,chipinge,-20.1883,32.6236,63.61,100,70,3.47,ZW,1611710023
512,luderitz,-26.6481,15.1594,65.97,62,11,24.23,NA,1611710023
513,comendador,18.8775,-71.7028,69.66,74,84,4.97,DO,1611710023
514,sahrak,,,,,,,,
515,noshiro,40.2039,140.0242,41,100,75,5.75,JP,1611710023
516,verkhniy avzyan,53.5289,57.5372,24.73,97,100,5.26,RU,1611710023
517,terney,45.0503,136.6092,21.87,85,0,15.88,RU,1611710023
518,fort smith,35.3859,-94.3986,41,70,1,3.44,US,1611710024
519,visby,57.6409,18.296,32,86,90,17.27,SE,1611710024
520,mana,5.6592,-53.7767,77.29,85,55,11.27,GF,1611710024
521,neuquen,-38.9516,-68.0591,77,25,0,11.5,AR,1611709752
522,udon thani,17.3333,102.8333,71.01,88,60,2.82,TH,1611710024
523,napasar,27.9667,73.55,45.97,57,0,2.75,IN,1611710024
524,shingu,33.7333,135.9833,55.4,82,75,21.85,JP,1611710024
525,kaka,37.3482,59.6143,33.89,80,0,2.39,TM,1611710024
526,zig,40.127,-92.7663,23,80,90,6.91,US,1611710025
527,kovdor,67.5662,30.4758,6.73,95,100,3.06,RU,1611710025
528,falam,22.9167,93.6833,48,80,0,0.81,MM,1611710025
529,bad hersfeld,50.8667,9.7,34,94,100,5.93,DE,1611710025
530,liwale,-9.7667,37.9333,67.71,98,90,2.24,TZ,1611710025
531,ketchikan,55.3422,-131.6461,30.2,74,1,4.61,US,1611710025
532,nizwa,22.9333,57.5333,53.29,71,12,0.76,OM,1611710026
533,port-gentil,-0.7193,8.7815,81.18,81,100,8.12,GA,1611710026
534,srednekolymsk,67.45,153.6833,-29.83,83,100,10.04,RU,1611709757
535,duz,,,,,,,,
536,ngama,11.7833,17.1667,73.18,19,81,10.78,TD,1611710026
537,along,28.1667,94.7667,53.42,60,87,2.66,IN,1611710026
538,banjar,-8.19,114.9675,82.4,78,40,16.11,ID,1611710026
539,mackenzie,55.2999,-123.1698,15.8,67,90,5.75,CA,1611710026
540,aksha,50.2814,113.2867,-10.77,81,71,9.28,RU,1611710027
541,great bend,38.3645,-98.7648,19.4,93,90,7.52,US,1611710027
542,mehamn,71.0357,27.8492,24.89,95,100,27.42,NO,1611710027
543,chulucanas,-5.0925,-80.1625,83.41,46,100,11.99,PE,1611710027
544,rosetta,31.4044,30.4164,53.6,82,0,2.3,EG,1611710027
545,havre-saint-pierre,50.2334,-63.5986,26.6,68,75,12.66,CA,1611710027
546,jinan,36.6683,116.9972,43,62,23,6.44,CN,1611709973
547,muramatsu,37.6833,139.1833,42.8,100,75,9.22,JP,1611710028
548,tezu,27.9167,96.1667,58.37,38,0,3.65,IN,1611710028
549,san felipe,10.3399,-68.7425,69.96,90,62,4.74,VE,1611710028
550,saint-louis,16.3333,-15,73.4,23,0,2.3,SN,1611710028
551,talara,-4.5772,-81.2719,74.44,78,70,15.3,PE,1611709772
552,dingle,10.9995,122.6711,79.23,81,98,10.22,PH,1611710028
553,sirjan,29.452,55.6814,38.61,62,0,5.32,IR,1611710028
554,aras,42.5617,-2.356,53.6,87,90,11.5,ES,1611710028
555,douglas,41.3,-96.167,16,85,1,9.22,US,1611710029
556,severo-yeniseyskiy,60.3725,93.0408,-39.75,80,100,4.54,RU,1611709923
557,kakching,24.4833,93.9833,39.2,93,75,0.98,IN,1611710029
558,ossora,59.2353,163.0719,9.37,93,100,13.15,RU,1611710029
559,chernyshevskiy,63.0128,112.4714,-45.33,80,46,2.21,RU,1611710029
560,vostok,46.4856,135.8833,6.17,93,97,7.67,RU,1611710029
561,tanhacu,-14.0214,-41.2481,70.77,76,100,6.58,BR,1611709872
562,kadi,23.3,72.3333,55.4,50,0,8.05,IN,1611710030
563,luau,-10.7073,22.2247,64.08,96,100,2.01,AO,1611710030
564,kurilsk,45.2333,147.8833,25.27,93,67,17.09,RU,1611710030
565,kudahuvadhoo,2.6708,72.8944,81.07,75,100,15.43,MV,1611710030
566,udachnyy,66.4167,112.4,-42.32,79,17,1.72,RU,1611710030
567,copiapo,-27.3667,-70.3333,62.6,82,90,12.66,CL,1611709979
568,oulainen,64.2667,24.8,23,95,100,1.99,FI,1611710030
569,bull savanna,17.8868,-77.5902,72.61,75,45,10.18,JM,1611710030
570,tapaua,,,,,,,,
571,abadiania,-16.2042,-48.7069,66.2,94,40,4.61,BR,1611710031
572,mocambique,,,,,,,,
573,synya,65.3718,58.0387,-15.21,87,100,7.05,RU,1611710031
574,la paz,-16.5,-68.15,50,40,75,13.8,BO,1611709845
575,berja,36.8469,-2.9497,57,94,0,2.3,ES,1611710031
576,talaya,61.3833,152.75,-25.62,81,100,3.87,RU,1611710031
577,san rafael del sur,11.8485,-86.4384,79.77,62,0,9.82,NI,1611710031
578,wulanhaote,,,,,,,,
579,bluefields,12.0137,-83.7635,76.96,85,0,10.11,NI,1611710032
580,naftalan,40.5067,46.825,32,74,40,4.61,AZ,1611710032
581,bandikui,27.05,76.5667,45.16,61,0,1.77,IN,1611710032
582,hervey bay,-25.2986,152.8535,84.2,58,75,11.5,AU,1611710032
583,olafsvik,64.8945,-23.7142,27.79,87,100,20,IS,1611710032
584,buala,-8.145,159.5921,84.85,75,100,14.32,SB,1611710032
585,dzerzhinskoye,56.8344,95.2283,-34.46,82,3,5.7,RU,1611710032
586,armidale,-30.5167,151.65,82,58,4,1.99,AU,1611710033
587,acarau,-2.8856,-40.12,79.65,82,82,11.74,BR,1611710033
588,boyuibe,-20.4167,-63.2833,65.64,94,100,5.19,BO,1611709872
589,anloga,5.7947,0.8973,82.4,83,20,9.22,GH,1611710033
590,povenets,62.8487,34.8262,32.31,98,100,7.54,RU,1611710033
591,mutsu,41.2894,141.2169,44.6,81,75,13.8,JP,1611710033
592,kargat,55.1956,80.2811,17.47,97,100,13.91,RU,1611710033
593,la rioja,42.25,-2.5,53.6,87,20,13.8,ES,1611709737
594,saint anthony,45.0205,-93.218,15.8,52,1,4.61,US,1611710034
595,svetlyy,54.675,20.1347,35.6,93,75,17.9,RU,1611710034
596,carauari,-4.8828,-66.8958,75.76,96,100,1.99,BR,1611710034
